{"type":"FeatureCollection","crs":{"type":"name","properties":{"name":"urn:ogc:def:crs:OGC:1.3:CRS84"}},"features":[{"properties":{"Full":76,"設立年月":0,"Type":"公立認可保育所","Name":"大曽根保育園","AgeS":"１歳","AgeE":"就学前","Open":"7:00","Close":"19:00","H24":"","Memo":"","Extra":"","Temp":"Y","Holiday":"","Night":"","プレ幼稚園":"","園バス":"","給食":"","Add1":"横浜市港北区大曽根2-5-1","Add2":"","TEL":"045-531-0034","FAX":"045-531-0125","児童発達支援":"","重心（児童発達）":"","放課後デイ":"","重心（放課後デイ）":"","url":"http://www.city.yokohama.lg.jp/kohoku/hoikuen/osone/"},"type":"Feature","geometry":{"type":"Point","coordinates":[139.63055,35.52758]}},{"properties":{"Full":78,"設立年月":0,"Type":"公立認可保育所","Name":"菊名保育園","AgeS":"１歳","AgeE":"就学前","Open":"7:00","Close":"19:00","H24":"","Memo":"","Extra":"","Temp":"Y","Holiday":"","Night":"","プレ幼稚園":"","園バス":"","給食":"","Add1":"横浜市港北区菊名3-10-20","Add2":"","TEL":"045-433-1259","FAX":"045-433-1261","児童発達支援":"","重心（児童発達）":"","放課後デイ":"","重心（放課後デイ）":"","url":"http://www.city.yokohama.lg.jp/kohoku/hoikuen/kikuna/"},"type":"Feature","geometry":{"type":"Point","coordinates":[139.63771,35.50593]}},{"properties":{"Full":98,"設立年月":0,"Type":"公立認可保育所","Name":"港北保育園","AgeS":"６か月","AgeE":"就学前","Open":"7:00","Close":"19:00","H24":"","Memo":"","Extra":"","Temp":"Y","Holiday":"","Night":"","プレ幼稚園":"","園バス":"","給食":"","Add1":"横浜市港北区仲手原2-20-19","Add2":"","TEL":"045-421-8575","FAX":"045-421-8582","児童発達支援":"","重心（児童発達）":"","放課後デイ":"","重心（放課後デイ）":"","url":"http://www.city.yokohama.lg.jp/kohoku/hoikuen/kohoku/"},"type":"Feature","geometry":{"type":"Point","coordinates":[139.63149,35.49618]}},{"properties":{"Full":131,"設立年月":0,"Type":"公立認可保育所","Name":"太尾保育園","AgeS":"６か月","AgeE":"就学前","Open":"7:00","Close":"19:00","H24":"","Memo":"","Extra":"","Temp":"Y","Holiday":"","Night":"","プレ幼稚園":"","園バス":"","給食":"","Add1":"横浜市港北区大倉山4-24-7","Add2":"","TEL":"045-542-0852","FAX":"045-542-0856","児童発達支援":"","重心（児童発達）":"","放課後デイ":"","重心（放課後デイ）":"","url":"http://www.city.yokohama.lg.jp/kohoku/hoikuen/futoo/"},"type":"Feature","geometry":{"type":"Point","coordinates":[139.62244,35.52067]}},{"properties":{"Full":78,"設立年月":0,"Type":"公立認可保育所","Name":"南日吉保育園","AgeS":"６か月","AgeE":"就学前","Open":"7:00","Close":"19:00","H24":"","Memo":"","Extra":"","Temp":"Y","Holiday":"","Night":"","プレ幼稚園":"","園バス":"","給食":"","Add1":"横浜市港北区日吉本町4-10-52","Add2":"","TEL":"045-561-6560","FAX":"045-561-6604","児童発達支援":"","重心（児童発達）":"","放課後デイ":"","重心（放課後デイ）":"","url":"www.city.yokohama.lg.jp/kohoku/hoikuen/minamihiyoshi/"},"type":"Feature","geometry":{"type":"Point","coordinates":[139.63475,35.54547]}},{"properties":{"Full":77,"設立年月":0,"Type":"私立認可保育所","Name":"みのわのぞみ保育園","AgeS":"１歳","AgeE":"就学前","Open":"7:00","Close":"20:00","H24":"","Memo":"","Extra":"","Temp":"","Holiday":"","Night":"","プレ幼稚園":"","園バス":"","給食":"","Add1":"横浜市港北区箕輪町3-7-2","Add2":"","TEL":"045-562-1210","FAX":"045-562-1247","児童発達支援":"","重心（児童発達）":"","放課後デイ":"","重心（放課後デイ）":"","url":"http://minowa.shkb.org/"},"type":"Feature","geometry":{"type":"Point","coordinates":[139.64349,35.54848]}},{"properties":{"Full":90,"設立年月":0,"Type":"私立認可保育所","Name":"あい保育園高田東","AgeS":"産休明け","AgeE":"就学前","Open":"7:00","Close":"20:00","H24":"","Memo":"","Extra":"","Temp":"Y","Holiday":"","Night":"","プレ幼稚園":"","園バス":"","給食":"","Add1":"横浜市港北区高田東4-23-17","Add2":"","TEL":"045-859-9302","FAX":"045-859-9303","児童発達支援":"","重心（児童発達）":"","放課後デイ":"","重心（放課後デイ）":"","url":"http://www.city.yokohama.lg.jp/kodomo/unei/hdata/n0403.html"},"type":"Feature","geometry":{"type":"Point","coordinates":[139.61987,35.54909]}},{"properties":{"Full":90,"設立年月":0,"Type":"私立認可保育所","Name":"アスク大倉山保育園","AgeS":"産休明け","AgeE":"就学前","Open":"7:00","Close":"21:00","H24":"","Memo":"","Extra":"","Temp":"","Holiday":"","Night":"","プレ幼稚園":"","園バス":"","給食":"","Add1":"横浜市港北区大倉山4-1-1BROTE大倉山1F","Add2":"","TEL":"045-549-5282","FAX":"045-717-8550","児童発達支援":"","重心（児童発達）":"","放課後デイ":"","重心（放課後デイ）":"","url":"http://www.nihonhoiku.co.jp/blog/okurayama/shokai/"},"type":"Feature","geometry":{"type":"Point","coordinates":[139.62565,35.51799]}},{"properties":{"Full":90,"設立年月":0,"Type":"私立認可保育所","Name":"アスク日吉東保育園","AgeS":"産休明け","AgeE":"就学前","Open":"7:30","Close":"20:00","H24":"","Memo":"","Extra":"","Temp":"Y","Holiday":"","Night":"","プレ幼稚園":"","園バス":"","給食":"","Add1":"横浜市港北区日吉7-20-44","Add2":"","TEL":"045-566-2226","FAX":"045-566-2229","児童発達支援":"","重心（児童発達）":"","放課後デイ":"","重心（放課後デイ）":"","url":"http://www.nihonhoiku.co.jp/blog/hiyoshihigashi/shokai/"},"type":"Feature","geometry":{"type":"Point","coordinates":[139.64861,35.54307]}},{"properties":{"Full":140,"設立年月":0,"Type":"私立認可保育所","Name":"アスク日吉本町開善保育園","AgeS":"産休明け","AgeE":"就学前","Open":"7:00","Close":"20:00","H24":"","Memo":"","Extra":"","Temp":"Y","Holiday":"","Night":"","プレ幼稚園":"","園バス":"","給食":"","Add1":"横浜市港北区日吉本町2-46-11","Add2":"","TEL":"045-562-0895","FAX":"045-562-0897","児童発達支援":"","重心（児童発達）":"","放課後デイ":"","重心（放課後デイ）":"","url":"http://www.nihonhoiku.co.jp/blog/hiyoshihoncho/shokai/"},"type":"Feature","geometry":{"type":"Point","coordinates":[139.63557,35.55153]}},{"properties":{"Full":60,"設立年月":0,"Type":"私立認可保育所","Name":"アスク日吉本町第二保育園","AgeS":"産休明け","AgeE":"就学前","Open":"7:00","Close":"21:00","H24":"","Memo":"","Extra":"","Temp":"","Holiday":"","Night":"","プレ幼稚園":"","園バス":"","給食":"","Add1":"横浜市港北区日吉本町2-46-24","Add2":"","TEL":"045-566-6445","FAX":"045-620-4124","児童発達支援":"","重心（児童発達）":"","放課後デイ":"","重心（放課後デイ）":"","url":"http://www.nihonhoiku.co.jp/blog/hiyoshihoncho2/shokai/"},"type":"Feature","geometry":{"type":"Point","coordinates":[139.63592,35.55172]}},{"properties":{"Full":90,"設立年月":0,"Type":"私立認可保育所","Name":"アスクゆめみらい保育園","AgeS":"産休明け","AgeE":"就学前","Open":"7:00","Close":"20:00","H24":"","Memo":"","Extra":"","Temp":"","Holiday":"","Night":"","プレ幼稚園":"","園バス":"","給食":"","Add1":"横浜市港北区綱島東4-1-5","Add2":"","TEL":"045-540-3030","FAX":"045-540-3223","児童発達支援":"","重心（児童発達）":"","放課後デイ":"","重心（放課後デイ）":"","url":"http://www.nihonhoiku.co.jp/blog/yumemirai/shokai/"},"type":"Feature","geometry":{"type":"Point","coordinates":[139.64069,35.54284]}},{"properties":{"Full":140,"設立年月":0,"Type":"私立認可保育所","Name":"岩崎学園新横浜保育園","AgeS":"産休明け","AgeE":"就学前","Open":"7:00","Close":"19:30","H24":"","Memo":"","Extra":"","Temp":"Y","Holiday":"","Night":"","プレ幼稚園":"","園バス":"","給食":"","Add1":"横浜市港北区新横浜2-4-10岩崎学園新横浜1号館","Add2":"","TEL":"045-474-2365","FAX":"045-474-2375","児童発達支援":"","重心（児童発達）":"","放課後デイ":"","重心（放課後デイ）":"","url":"http://hoiku.iwasaki.ac.jp/kosodate/isyh/index.html"},"type":"Feature","geometry":{"type":"Point","coordinates":[139.61602,35.50906]}},{"properties":{"Full":120,"設立年月":0,"Type":"私立認可保育所","Name":"岩崎学園新横浜第二保育園","AgeS":"産休明け","AgeE":"就学前","Open":"7:00","Close":"19:30","H24":"","Memo":"","Extra":"","Temp":"Y","Holiday":"","Night":"","プレ幼稚園":"","園バス":"","給食":"","Add1":"横浜市港北区新横浜3-22-19岩崎学園新横浜3号館","Add2":"","TEL":"045-474-5630","FAX":"045-474-5629","児童発達支援":"","重心（児童発達）":"","放課後デイ":"","重心（放課後デイ）":"","url":"http://hoiku.iwasaki.ac.jp/kosodate/isyh2/index.html"},"type":"Feature","geometry":{"type":"Point","coordinates":[139.61858,35.51251]}},{"properties":{"Full":60,"設立年月":0,"Type":"私立認可保育所","Name":"うみのくに保育園きくな","AgeS":"産休明け","AgeE":"就学前","Open":"7:00","Close":"21:30","H24":"","Memo":"","Extra":"","Temp":"Y","Holiday":"Y","Night":"","プレ幼稚園":"","園バス":"","給食":"","Add1":"横浜市港北区菊名7-5-36","Add2":"","TEL":"045-877-4284","FAX":"045-877-4284","児童発達支援":"","重心（児童発達）":"","放課後デイ":"","重心（放課後デイ）":"","url":"http://uminokuni-k.cocolog-nifty.com/top/"},"type":"Feature","geometry":{"type":"Point","coordinates":[139.62999,35.5161]}},{"properties":{"Full":90,"設立年月":0,"Type":"私立認可保育所","Name":"大倉山保育園","AgeS":"６か月","AgeE":"就学前","Open":"7:00","Close":"20:00","H24":"","Memo":"","Extra":"","Temp":"Y","Holiday":"","Night":"","プレ幼稚園":"","園バス":"","給食":"","Add1":"横浜市港北区大曽根1-7-1","Add2":"","TEL":"045-542-5632","FAX":"045-542-5734","児童発達支援":"","重心（児童発達）":"","放課後デイ":"","重心（放課後デイ）":"","url":"https://www.kyosaikai.jp/business/o-hoiku.html"},"type":"Feature","geometry":{"type":"Point","coordinates":[139.63184,35.52464]}},{"properties":{"Full":70,"設立年月":0,"Type":"私立認可保育所","Name":"おおくらやまえきまえのぞみ保育園","AgeS":"５か月","AgeE":"就学前","Open":"7:00","Close":"20:00","H24":"","Memo":"","Extra":"","Temp":"Y","Holiday":"","Night":"","プレ幼稚園":"","園バス":"","給食":"","Add1":"横浜市港北区大倉山3-5-16","Add2":"","TEL":"045-717-6660","FAX":"045-717-6661","児童発達支援":"","重心（児童発達）":"","放課後デイ":"","重心（放課後デイ）":"","url":"http://ookurayama.shkb.org/"},"type":"Feature","geometry":{"type":"Point","coordinates":[139.6295,35.5207]}},{"properties":{"Full":120,"設立年月":0,"Type":"私立認可保育所","Name":"大倉山元気の泉保育園","AgeS":"産休明け","AgeE":"就学前","Open":"7:00","Close":"20:00","H24":"","Memo":"","Extra":"","Temp":"Y","Holiday":"","Night":"","プレ幼稚園":"","園バス":"","給食":"","Add1":"横浜市港北区樽町1-14-20","Add2":"","TEL":"045-532-0076","FAX":"045-541-1501","児童発達支援":"","重心（児童発達）":"","放課後デイ":"","重心（放課後デイ）":"","url":"http://www.genkinoizumi.net/okurayama/"},"type":"Feature","geometry":{"type":"Point","coordinates":[139.6353,35.52725]}},{"properties":{"Full":201,"設立年月":0,"Type":"私立認可保育所","Name":"おおつな保育園","AgeS":"産休明け","AgeE":"就学前","Open":"7:00","Close":"19:00","H24":"","Memo":"","Extra":"","Temp":"","Holiday":"","Night":"","プレ幼稚園":"","園バス":"","給食":"","Add1":"横浜市港北区大曽根2-33-8","Add2":"","TEL":"045-531-0501","FAX":"045-531-0520","児童発達支援":"","重心（児童発達）":"","放課後デイ":"","重心（放課後デイ）":"","url":"http://www.city.yokohama.lg.jp/kodomo/unei/hdata/n0356.html"},"type":"Feature","geometry":{"type":"Point","coordinates":[139.63072,35.53131]}},{"properties":{"Full":24,"設立年月":0,"Type":"私立認可保育所","Name":"おおつな森の保育園","AgeS":"２歳","AgeE":"就学前","Open":"7:00","Close":"19:00","H24":"","Memo":"","Extra":"","Temp":"","Holiday":"","Night":"","プレ幼稚園":"","園バス":"","給食":"","Add1":"横浜市港北区新羽町1020-1","Add2":"","TEL":"045-545-0620","FAX":"045-545-0621","児童発達支援":"","重心（児童発達）":"","放課後デイ":"","重心（放課後デイ）":"","url":"http://www.city.yokohama.lg.jp/kodomo/unei/hdata/n0373.html"},"type":"Feature","geometry":{"type":"Point","coordinates":[139.60756,35.51969]}},{"properties":{"Full":112,"設立年月":0,"Type":"私立認可保育所","Name":"オハナ新羽保育園","AgeS":"産休明け","AgeE":"就学前","Open":"7:00","Close":"20:00","H24":"","Memo":"","Extra":"Y","Temp":"Y","Holiday":"","Night":"","プレ幼稚園":"","園バス":"","給食":"","Add1":"横浜市港北区新羽町1685 2F・5F","Add2":"","TEL":"045-532-0810","FAX":"","児童発達支援":"","重心（児童発達）":"","放課後デイ":"","重心（放課後デイ）":"","url":"http://ohana-hoikuen.com/nippa/"},"type":"Feature","geometry":{"type":"Point","coordinates":[139.61195,35.52847]}},{"properties":{"Full":120,"設立年月":0,"Type":"私立認可保育所","Name":"菊名愛児園","AgeS":"６か月","AgeE":"就学前","Open":"7:30","Close":"19:00","H24":"","Memo":"","Extra":"Y","Temp":"","Holiday":"","Night":"","プレ幼稚園":"","園バス":"","給食":"","Add1":"横浜市港北区菊名4-5-1","Add2":"","TEL":"045-401-0431","FAX":"","児童発達支援":"","重心（児童発達）":"","放課後デイ":"","重心（放課後デイ）":"","url":"http://www.kikuna.jpn.org/aijien/"},"type":"Feature","geometry":{"type":"Point","coordinates":[139.6359,35.50975]}},{"properties":{"Full":102,"設立年月":0,"Type":"私立認可保育所","Name":"岸根保育園","AgeS":"産休明け","AgeE":"就学前","Open":"7:00","Close":"21:00","H24":"","Memo":"","Extra":"Y","Temp":"Y","Holiday":"","Night":"","プレ幼稚園":"","園バス":"","給食":"","Add1":"横浜市港北区岸根685-12","Add2":"","TEL":"045-491-1555","FAX":"","児童発達支援":"","重心（児童発達）":"","放課後デイ":"","重心（放課後デイ）":"","url":"http://www.ans.co.jp/apf/yamayurikai/link5/"},"type":"Feature","geometry":{"type":"Point","coordinates":[139.61063,35.49646]}},{"properties":{"Full":60,"設立年月":0,"Type":"私立認可保育所","Name":"くっくおさんぽ保育園","AgeS":"産休明け","AgeE":"就学前","Open":"7:00","Close":"20:00","H24":"","Memo":"","Extra":"Y","Temp":"Y","Holiday":"","Night":"","プレ幼稚園":"","園バス":"","給食":"","Add1":"横浜市港北区日吉6-1-7","Add2":"","TEL":"045-566-6777","FAX":"","児童発達支援":"","重心（児童発達）":"","放課後デイ":"","重心（放課後デイ）":"","url":"http://www.geocities.jp/osanpo1111/index.html"},"type":"Feature","geometry":{"type":"Point","coordinates":[139.65213,35.54578]}},{"properties":{"Full":60,"設立年月":0,"Type":"私立認可保育所","Name":"くっくおさんぽ保育園大倉山","AgeS":"産休明け","AgeE":"就学前","Open":"7:00","Close":"20:00","H24":"","Memo":"","Extra":"Y","Temp":"","Holiday":"","Night":"","プレ幼稚園":"","園バス":"","給食":"","Add1":"横浜市港北区大倉山5-39-23","Add2":"","TEL":"045-542-7236","FAX":"","児童発達支援":"","重心（児童発達）":"","放課後デイ":"","重心（放課後デイ）":"","url":"http://www.geocities.jp/osanpo1111/"},"type":"Feature","geometry":{"type":"Point","coordinates":[139.62292,35.52577]}},{"properties":{"Full":75,"設立年月":0,"Type":"私立認可保育所","Name":"くっくおさんぽ保育園ふとお","AgeS":"１歳","AgeE":"就学前","Open":"7:00","Close":"20:00","H24":"","Memo":"","Extra":"Y","Temp":"Y","Holiday":"","Night":"","プレ幼稚園":"","園バス":"","給食":"","Add1":"横浜市港北区大倉山7-40-2","Add2":"","TEL":"045-533-3375","FAX":"","児童発達支援":"","重心（児童発達）":"","放課後デイ":"","重心（放課後デイ）":"","url":"http://www.geocities.jp/osanpo1111/"},"type":"Feature","geometry":{"type":"Point","coordinates":[139.62032,35.51881]}},{"properties":{"Full":40,"設立年月":0,"Type":"私立認可保育所","Name":"グローバルキッズ下田町園","AgeS":"１歳","AgeE":"就学前","Open":"7:30","Close":"20:30","H24":"","Memo":"","Extra":"Y","Temp":"Y","Holiday":"","Night":"","プレ幼稚園":"","園バス":"","給食":"","Add1":"横浜市港北区下田町3-16-25 ルーチェ1F","Add2":"","TEL":"045-561-2555","FAX":"","児童発達支援":"","重心（児童発達）":"","放課後デイ":"","重心（放課後デイ）":"","url":"http://www.gkids.co.jp/facilities/nursery_038.html"},"type":"Feature","geometry":{"type":"Point","coordinates":[139.63006,35.55904]}},{"properties":{"Full":120,"設立年月":0,"Type":"私立認可保育所","Name":"グローバルキッズ綱島園","AgeS":"産休明け","AgeE":"就学前","Open":"7:30","Close":"20:30","H24":"","Memo":"","Extra":"Y","Temp":"Y","Holiday":"","Night":"","プレ幼稚園":"","園バス":"","給食":"","Add1":"横浜市港北区綱島東4-11-38","Add2":"","TEL":"045-545-1717","FAX":"","児童発達支援":"","重心（児童発達）":"","放課後デイ":"","重心（放課後デイ）":"","url":"http://www.gkids.co.jp/facilities/nursery_039.html"},"type":"Feature","geometry":{"type":"Point","coordinates":[139.64484,35.53948]}},{"properties":{"Full":63,"設立年月":0,"Type":"私立認可保育所","Name":"グローバルキッズ日吉園","AgeS":"産休明け","AgeE":"就学前","Open":"7:30","Close":"20:30","H24":"","Memo":"","Extra":"Y","Temp":"Y","Holiday":"","Night":"","プレ幼稚園":"","園バス":"","給食":"","Add1":"横浜市港北区日吉1-10-26","Add2":"","TEL":"045-562-0321","FAX":"","児童発達支援":"","重心（児童発達）":"","放課後デイ":"","重心（放課後デイ）":"","url":"http://www.gkids.co.jp/facilities/nursery_028.html"},"type":"Feature","geometry":{"type":"Point","coordinates":[139.64251,35.5565]}},{"properties":{"Full":60,"設立年月":0,"Type":"私立認可保育所","Name":"ケンパ高田","AgeS":"産休明け","AgeE":"就学前","Open":"7:00","Close":"20:30","H24":"","Memo":"","Extra":"Y","Temp":"Y","Holiday":"","Night":"","プレ幼稚園":"","園バス":"","給食":"","Add1":"横浜市港北区高田東4-17-17","Add2":"","TEL":"045-540-0400","FAX":"","児童発達支援":"","重心（児童発達）":"","放課後デイ":"","重心（放課後デイ）":"","url":"http://www.city.yokohama.lg.jp/kodomo/unei/hdata/n0385.html"},"type":"Feature","geometry":{"type":"Point","coordinates":[139.62144,35.54787]}},{"properties":{"Full":60,"設立年月":0,"Type":"私立認可保育所","Name":"港北コスモス保育園","AgeS":"産休明け","AgeE":"就学前","Open":"7:00","Close":"19:00","H24":"","Memo":"","Extra":"Y","Temp":"Y","Holiday":"","Night":"","プレ幼稚園":"","園バス":"","給食":"","Add1":"横浜市港北区新吉田東5-78-24","Add2":"","TEL":"045-716-8297","FAX":"","児童発達支援":"","重心（児童発達）":"","放課後デイ":"","重心（放課後デイ）":"","url":"http://www.kohokucosmos-hoikuen.jp/index.html"},"type":"Feature","geometry":{"type":"Point","coordinates":[139.61505,35.53988]}},{"properties":{"Full":90,"設立年月":0,"Type":"私立認可保育所","Name":"ココファン・ナーサリー日吉本町","AgeS":"産休明け","AgeE":"就学前","Open":"7:00","Close":"20:00","H24":"","Memo":"2022年04月から「Gakkenほいくえん 日吉本町」に改称予定","Extra":"Y","Temp":"","Holiday":"","Night":"","プレ幼稚園":"","園バス":"","給食":"","Add1":"横浜市港北区日吉本町3-23-15","Add2":"","TEL":"045-560-2331","FAX":"","児童発達支援":"","重心（児童発達）":"","放課後デイ":"","重心（放課後デイ）":"","url":"http://nursery.cocofump.co.jp/nursery_school/hiyoshihonchou/"},"type":"Feature","geometry":{"type":"Point","coordinates":[139.6385,35.54767]}},{"properties":{"Full":170,"設立年月":0,"Type":"私立認可保育所","Name":"尚花愛児園","AgeS":"産休明け","AgeE":"就学前","Open":"7:00","Close":"19:00","H24":"","Memo":"","Extra":"Y","Temp":"Y","Holiday":"","Night":"","プレ幼稚園":"","園バス":"","給食":"","Add1":"横浜市港北区綱島西2-15-8","Add2":"","TEL":"045-542-4282","FAX":"","児童発達支援":"","重心（児童発達）":"","放課後デイ":"","重心（放課後デイ）":"","url":"http://www.shoka-aijien.or.jp/"},"type":"Feature","geometry":{"type":"Point","coordinates":[139.63003,35.5355]}},{"properties":{"Full":60,"設立年月":0,"Type":"私立認可保育所","Name":"小学館アカデミーつなしま保育園","AgeS":"産休明け","AgeE":"就学前","Open":"7:00","Close":"20:00","H24":"","Memo":"","Extra":"Y","Temp":"","Holiday":"","Night":"","プレ幼稚園":"","園バス":"","給食":"","Add1":"横浜市港北区樽町2-13-27","Add2":"","TEL":"045-542-1521","FAX":"","児童発達支援":"","重心（児童発達）":"","放課後デイ":"","重心（放課後デイ）":"","url":"http://www.shopro.co.jp/hoiku/shisetsu/tsunashima/"},"type":"Feature","geometry":{"type":"Point","coordinates":[139.63379,35.53144]}},{"properties":{"Full":60,"設立年月":0,"Type":"私立認可保育所","Name":"小学館アカデミーひよし保育園","AgeS":"産休明け","AgeE":"就学前","Open":"7:00","Close":"20:00","H24":"","Memo":"","Extra":"Y","Temp":"","Holiday":"","Night":"","プレ幼稚園":"","園バス":"","給食":"","Add1":"横浜市港北区箕輪町2-2-12","Add2":"","TEL":"045-560-1710","FAX":"","児童発達支援":"","重心（児童発達）":"","放課後デイ":"","重心（放課後デイ）":"","url":"http://www.shopro.co.jp/hoiku/shisetsu/hiyoshi/"},"type":"Feature","geometry":{"type":"Point","coordinates":[139.64477,35.54739]}},{"properties":{"Full":148,"設立年月":0,"Type":"私立認可保育所","Name":"しんよしだ保育園","AgeS":"産休明け","AgeE":"就学前","Open":"7:00","Close":"19:00","H24":"","Memo":"","Extra":"Y","Temp":"","Holiday":"","Night":"","プレ幼稚園":"","園バス":"","給食":"","Add1":"横浜市港北区新吉田東6-17-3","Add2":"","TEL":"045-549-5821","FAX":"","児童発達支援":"","重心（児童発達）":"","放課後デイ":"","重心（放課後デイ）":"","url":"http://www.shinyoshida-hoikuen.or.jp/"},"type":"Feature","geometry":{"type":"Point","coordinates":[139.62128,35.53645]}},{"properties":{"Full":90,"設立年月":0,"Type":"私立認可保育所","Name":"第二尚花愛児園","AgeS":"６か月","AgeE":"就学前","Open":"7:00","Close":"20:00","H24":"","Memo":"","Extra":"Y","Temp":"Y","Holiday":"","Night":"","プレ幼稚園":"","園バス":"","給食":"","Add1":"横浜市港北区綱島西1-16-27","Add2":"","TEL":"045-542-2004","FAX":"","児童発達支援":"","重心（児童発達）":"","放課後デイ":"","重心（放課後デイ）":"","url":"http://dai2-shoka-aijien.jp/"},"type":"Feature","geometry":{"type":"Point","coordinates":[139.63215,35.53886]}},{"properties":{"Full":168,"設立年月":0,"Type":"私立認可保育所","Name":"第二福澤保育センター","AgeS":"産休明け","AgeE":"就学前","Open":"7:00","Close":"20:00","H24":"","Memo":"","Extra":"Y","Temp":"Y","Holiday":"","Night":"","プレ幼稚園":"","園バス":"","給食":"","Add1":"横浜市港北区篠原町2823","Add2":"","TEL":"045-434-1135","FAX":"","児童発達支援":"","重心（児童発達）":"","放課後デイ":"","重心（放課後デイ）":"","url":"http://kuonen.kids.coocan.jp/sub2.html"},"type":"Feature","geometry":{"type":"Point","coordinates":[139.62124,35.50493]}},{"properties":{"Full":49,"設立年月":0,"Type":"私立認可保育所","Name":"太陽の子日吉保育園","AgeS":"産休明け","AgeE":"就学前","Open":"7:30","Close":"20:00","H24":"","Memo":"","Extra":"Y","Temp":"Y","Holiday":"","Night":"","プレ幼稚園":"","園バス":"","給食":"","Add1":"横浜市港北区日吉1-21-55","Add2":"","TEL":"045-566-6345","FAX":"","児童発達支援":"","重心（児童発達）":"","放課後デイ":"","重心（放課後デイ）":"","url":"http://www.kidslife-nursery.com/base/yokohama/hiyoshi/"},"type":"Feature","geometry":{"type":"Point","coordinates":[139.64089,35.55714]}},{"properties":{"Full":69,"設立年月":0,"Type":"私立認可保育所","Name":"たかた保育園","AgeS":"１歳","AgeE":"就学前","Open":"7:00","Close":"20:00","H24":"","Memo":"","Extra":"Y","Temp":"Y","Holiday":"","Night":"","プレ幼稚園":"","園バス":"","給食":"","Add1":"横浜市港北区高田西4-35-18","Add2":"","TEL":"045-592-3251","FAX":"","児童発達支援":"","重心（児童発達）":"","放課後デイ":"","重心（放課後デイ）":"","url":"http://www.takata-hoikuen.jp/"},"type":"Feature","geometry":{"type":"Point","coordinates":[139.61539,35.55486]}},{"properties":{"Full":42,"設立年月":0,"Type":"私立認可保育所","Name":"たんぽぽ保育園","AgeS":"産休明け","AgeE":"３歳","Open":"7:30","Close":"19:30","H24":"","Memo":"","Extra":"Y","Temp":"Y","Holiday":"","Night":"","プレ幼稚園":"","園バス":"","給食":"","Add1":"横浜市港北区大倉山5-40-15","Add2":"","TEL":"045-633-4141","FAX":"","児童発達支援":"","重心（児童発達）":"","放課後デイ":"","重心（放課後デイ）":"","url":"http://tanpopo.kir.jp/index.html"},"type":"Feature","geometry":{"type":"Point","coordinates":[139.62393,35.52538]}},{"properties":{"Full":90,"設立年月":0,"Type":"私立認可保育所","Name":"なあな保育園","AgeS":"産休明け","AgeE":"就学前","Open":"7:00","Close":"20:00","H24":"","Memo":"","Extra":"Y","Temp":"Y","Holiday":"","Night":"","プレ幼稚園":"","園バス":"","給食":"","Add1":"横浜市港北区樽町3-6-38","Add2":"","TEL":"045-543-0327","FAX":"","児童発達支援":"","重心（児童発達）":"","放課後デイ":"","重心（放課後デイ）":"","url":"http://www.tokyolm.co.jp/nana_ns/"},"type":"Feature","geometry":{"type":"Point","coordinates":[139.64309,35.53019]}},{"properties":{"Full":56,"設立年月":0,"Type":"私立認可保育所","Name":"にじいろ保育園綱島","AgeS":"3ヶ月～","AgeE":"就学前","Open":"7:00","Close":"20:00","H24":"","Memo":"","Extra":"Y","Temp":"","Holiday":"","Night":"","プレ幼稚園":"","園バス":"","給食":"","Add1":"横浜市港北区綱島西3-4-8","Add2":"","TEL":"045-717-7241","FAX":"","児童発達支援":"","重心（児童発達）":"","放課後デイ":"","重心（放課後デイ）":"","url":"http://www.nijiiro-hoikuen.jp/"},"type":"Feature","geometry":{"type":"Point","coordinates":[139.6294,35.537]}},{"properties":{"Full":90,"設立年月":0,"Type":"私立認可保育所","Name":"新羽どろんこ保育園","AgeS":"産休明け","AgeE":"就学前","Open":"7:00","Close":"20:00","H24":"","Memo":"","Extra":"Y","Temp":"Y","Holiday":"","Night":"","プレ幼稚園":"","園バス":"","給食":"","Add1":"横浜市港北区新羽町2185-1","Add2":"","TEL":"045-544-5033","FAX":"","児童発達支援":"","重心（児童発達）":"","放課後デイ":"","重心（放課後デイ）":"","url":"http://www.doronko.biz/nursery/nippa.php"},"type":"Feature","geometry":{"type":"Point","coordinates":[139.60888,35.52636]}},{"properties":{"Full":60,"設立年月":0,"Type":"私立認可保育所","Name":"パレット保育園・高田","AgeS":"６か月","AgeE":"就学前","Open":"7:00","Close":"20:00","H24":"","Memo":"","Extra":"Y","Temp":"","Holiday":"","Night":"","プレ幼稚園":"","園バス":"","給食":"","Add1":"横浜市港北区高田東4-22-38","Add2":"","TEL":"045-544-1149","FAX":"","児童発達支援":"","重心（児童発達）":"","放課後デイ":"","重心（放課後デイ）":"","url":"http://p-hoiku.com/kakuen/about_takada/"},"type":"Feature","geometry":{"type":"Point","coordinates":[139.6204,35.5492]}},{"properties":{"Full":80,"設立年月":0,"Type":"私立認可保育所","Name":"パレット保育園・綱島","AgeS":"産休明け","AgeE":"就学前","Open":"7:00","Close":"20:00","H24":"","Memo":"","Extra":"Y","Temp":"","Holiday":"","Night":"","プレ幼稚園":"","園バス":"","給食":"","Add1":"横浜市港北区綱島西1-2-9","Add2":"","TEL":"045-540-0301","FAX":"","児童発達支援":"","重心（児童発達）":"","放課後デイ":"","重心（放課後デイ）":"","url":"http://p-hoiku.com/kakuen/about_tsunashima/"},"type":"Feature","geometry":{"type":"Point","coordinates":[139.63532,35.53779]}},{"properties":{"Full":60,"設立年月":0,"Type":"私立認可保育所","Name":"パレット保育園・大豆戸","AgeS":"６か月","AgeE":"就学前","Open":"7:00","Close":"20:00","H24":"","Memo":"","Extra":"Y","Temp":"","Holiday":"","Night":"","プレ幼稚園":"","園バス":"","給食":"","Add1":"横浜市港北区大豆戸町552-1","Add2":"","TEL":"045-438-3149","FAX":"","児童発達支援":"","重心（児童発達）":"","放課後デイ":"","重心（放課後デイ）":"","url":"http://p-hoiku.com/kakuen/about_mamedo/"},"type":"Feature","geometry":{"type":"Point","coordinates":[139.62474,35.51397]}},{"properties":{"Full":33,"設立年月":0,"Type":"私立認可保育所","Name":"光の園保育園","AgeS":"産休明け","AgeE":"就学前","Open":"7:00","Close":"20:00","H24":"","Memo":"","Extra":"Y","Temp":"Y","Holiday":"","Night":"","プレ幼稚園":"","園バス":"","給食":"","Add1":"横浜市港北区菊名6-15-14","Add2":"","TEL":"045-423-6755","FAX":"","児童発達支援":"","重心（児童発達）":"","放課後デイ":"","重心（放課後デイ）":"","url":"http://www.aunty-i.com/hikarinosono.html"},"type":"Feature","geometry":{"type":"Point","coordinates":[139.63089,35.51448]}},{"properties":{"Full":48,"設立年月":0,"Type":"私立認可保育所","Name":"光の園第二保育園","AgeS":"産休明け","AgeE":"就学前","Open":"7:00","Close":"20:00","H24":"","Memo":"","Extra":"Y","Temp":"Y","Holiday":"","Night":"","プレ幼稚園":"","園バス":"","給食":"","Add1":"横浜市港北区菊名6-21-17","Add2":"","TEL":"045-401-8020","FAX":"","児童発達支援":"","重心（児童発達）":"","放課後デイ":"","重心（放課後デイ）":"","url":"http://www.aunty-i.com/hikarinosono_dai2.html"},"type":"Feature","geometry":{"type":"Point","coordinates":[139.63083,35.51562]}},{"properties":{"Full":108,"設立年月":0,"Type":"私立認可保育所","Name":"聖保育園","AgeS":"産休明け","AgeE":"就学前","Open":"7:00","Close":"21:00","H24":"","Memo":"","Extra":"Y","Temp":"Y","Holiday":"Y","Night":"","プレ幼稚園":"","園バス":"","給食":"","Add1":"横浜市港北区大倉山3-41-17","Add2":"","TEL":"045-543-3695","FAX":"","児童発達支援":"","重心（児童発達）":"","放課後デイ":"","重心（放課後デイ）":"","url":"http://hijirihoikuen.com/"},"type":"Feature","geometry":{"type":"Point","coordinates":[139.62713,35.52227]}},{"properties":{"Full":60,"設立年月":0,"Type":"私立認可保育所","Name":"ヒューマンアカデミー大倉山保育園","AgeS":"産休明け","AgeE":"就学前","Open":"7:00","Close":"20:00","H24":"","Memo":"","Extra":"Y","Temp":"Y","Holiday":"","Night":"","プレ幼稚園":"","園バス":"","給食":"","Add1":"横浜市港北区師岡町298","Add2":"","TEL":"045-546-3166","FAX":"","児童発達支援":"","重心（児童発達）":"","放課後デイ":"","重心（放課後デイ）":"","url":"http://hoiku.human-lifecare.jp/facilities/okurayama"},"type":"Feature","geometry":{"type":"Point","coordinates":[139.63541,35.51864]}},{"properties":{"Full":60,"設立年月":0,"Type":"私立認可保育所","Name":"日吉こども園","AgeS":"産休明け","AgeE":"就学前","Open":"7:00","Close":"20:00","H24":"","Memo":"","Extra":"Y","Temp":"Y","Holiday":"","Night":"","プレ幼稚園":"","園バス":"","給食":"","Add1":"横浜市港北区日吉5-11-24ルミエール日吉1F","Add2":"","TEL":"045-563-7873","FAX":"","児童発達支援":"","重心（児童発達）":"","放課後デイ":"","重心（放課後デイ）":"","url":"http://www.city.yokohama.lg.jp/kodomo/unei/hdata/n0368.html"},"type":"Feature","geometry":{"type":"Point","coordinates":[139.65294,35.54632]}},{"properties":{"Full":38,"設立年月":0,"Type":"私立認可保育所","Name":"日吉みんなの保育園","AgeS":"産休明け","AgeE":"就学前","Open":"7:00","Close":"20:00","H24":"","Memo":"","Extra":"Y","Temp":"Y","Holiday":"","Night":"","プレ幼稚園":"","園バス":"","給食":"","Add1":"横浜市港北区日吉2-9-6","Add2":"","TEL":"045-561-6041","FAX":"","児童発達支援":"","重心（児童発達）":"","放課後デイ":"","重心（放課後デイ）":"","url":"http://www001.upp.so-net.ne.jp/hiyoshiminna/"},"type":"Feature","geometry":{"type":"Point","coordinates":[139.64526,35.55574]}},{"properties":{"Full":124,"設立年月":0,"Type":"私立認可保育所","Name":"日吉夢保育園","AgeS":"産休明け","AgeE":"就学前","Open":"7:00","Close":"20:00","H24":"","Memo":"","Extra":"Y","Temp":"Y","Holiday":"","Night":"","プレ幼稚園":"","園バス":"","給食":"","Add1":"横浜市港北区日吉本町5-74-1","Add2":"","TEL":"045-562-4125","FAX":"","児童発達支援":"","重心（児童発達）":"","放課後デイ":"","重心（放課後デイ）":"","url":"http://www.yumekoubou.or.jp/hoiku/hiyoshiyume/top/index.html"},"type":"Feature","geometry":{"type":"Point","coordinates":[139.62674,35.55056]}},{"properties":{"Full":70,"設立年月":0,"Type":"私立認可保育所","Name":"ペガサス新横浜保育園","AgeS":"産休明け","AgeE":"就学前","Open":"7:00","Close":"21:00","H24":"","Memo":"","Extra":"Y","Temp":"Y","Holiday":"","Night":"","プレ幼稚園":"","園バス":"","給食":"","Add1":"横浜市港北区新横浜3-24-14","Add2":"","TEL":"045-476-0768","FAX":"","児童発達支援":"","重心（児童発達）":"","放課後デイ":"","重心（放課後デイ）":"","url":"http://www.ans.co.jp/u/yamayurikai/index_2.htm"},"type":"Feature","geometry":{"type":"Point","coordinates":[139.62044,35.51385]}},{"properties":{"Full":20,"設立年月":0,"Type":"私立認可保育所","Name":"ペガサスベビー保育園","AgeS":"産休明け","AgeE":"１歳","Open":"7:00","Close":"20:00","H24":"","Memo":"","Extra":"Y","Temp":"Y","Holiday":"","Night":"","プレ幼稚園":"","園バス":"","給食":"","Add1":"横浜市港北区新横浜1-19-18パルク新横浜101","Add2":"","TEL":"045-475-1376","FAX":"","児童発達支援":"","重心（児童発達）":"","放課後デイ":"","重心（放課後デイ）":"","url":"http://www.ans.co.jp/u/yamayurikai/index_2.htm"},"type":"Feature","geometry":{"type":"Point","coordinates":[139.61211,35.50532]}},{"properties":{"Full":20,"設立年月":0,"Type":"私立認可保育所","Name":"ペガサス夜間保育園","AgeS":"産休明け","AgeE":"就学前","Open":"8:30","Close":"8:30","H24":"Y","Memo":"","Extra":"Y","Temp":"Y","Holiday":"","Night":"Y","プレ幼稚園":"","園バス":"","給食":"","Add1":"横浜市港北区新横浜3-24-14","Add2":"","TEL":"045-476-0769","FAX":"","児童発達支援":"","重心（児童発達）":"","放課後デイ":"","重心（放課後デイ）":"","url":"http://www.ans.co.jp/u/yamayurikai/index_2.htm"},"type":"Feature","geometry":{"type":"Point","coordinates":[139.62047,35.51406]}},{"properties":{"Full":70,"設立年月":0,"Type":"私立認可保育所","Name":"ベネッセ日吉保育園","AgeS":"産休明け","AgeE":"就学前","Open":"7:00","Close":"20:00","H24":"","Memo":"","Extra":"Y","Temp":"","Holiday":"","Night":"","プレ幼稚園":"","園バス":"","給食":"","Add1":"横浜市港北区日吉4-1-1慶應義塾日吉キャンパス協生館1F","Add2":"","TEL":"045-560-6506","FAX":"","児童発達支援":"","重心（児童発達）":"","放課後デイ":"","重心（放課後デイ）":"","url":"http://hoiku.benesse-style-care.co.jp/nursery/id20141014162358/"},"type":"Feature","geometry":{"type":"Point","coordinates":[139.64719,35.55177]}},{"properties":{"Full":45,"設立年月":0,"Type":"私立認可保育所","Name":"ポピンズナーサリースクール小机","AgeS":"産休明け","AgeE":"就学前","Open":"7:00","Close":"20:00","H24":"","Memo":"","Extra":"Y","Temp":"","Holiday":"","Night":"","プレ幼稚園":"","園バス":"","給食":"","Add1":"横浜市港北区小机町2580-1","Add2":"","TEL":"045-470-6621","FAX":"","児童発達支援":"","重心（児童発達）":"","放課後デイ":"","重心（放課後デイ）":"","url":"https://www.poppins.co.jp/nursery/room/detail/431/"},"type":"Feature","geometry":{"type":"Point","coordinates":[139.60073,35.50806]}},{"properties":{"Full":166,"設立年月":0,"Type":"私立認可保育所","Name":"マーマしのはら保育園","AgeS":"３か月","AgeE":"就学前","Open":"7:00","Close":"20:00","H24":"","Memo":"","Extra":"Y","Temp":"","Holiday":"","Night":"","プレ幼稚園":"","園バス":"","給食":"","Add1":"横浜市港北区篠原町974-25","Add2":"","TEL":"045-439-0048","FAX":"","児童発達支援":"","重心（児童発達）":"","放課後デイ":"","重心（放課後デイ）":"","url":"http://www.mama-hoikuen.com/"},"type":"Feature","geometry":{"type":"Point","coordinates":[139.62135,35.50246]}},{"properties":{"Full":60,"設立年月":0,"Type":"私立認可保育所","Name":"マイ・ハート綱島東保育園","AgeS":"産休明け","AgeE":"就学前","Open":"7:00","Close":"20:00","H24":"","Memo":"","Extra":"Y","Temp":"","Holiday":"","Night":"","プレ幼稚園":"","園バス":"","給食":"","Add1":"横浜市港北区綱島東3-4-32","Add2":"","TEL":"045-642-3700","FAX":"","児童発達支援":"","重心（児童発達）":"","放課後デイ":"","重心（放課後デイ）":"","url":"http://myheart-hoikuen.com/"},"type":"Feature","geometry":{"type":"Point","coordinates":[139.64253,35.53823]}},{"properties":{"Full":54,"設立年月":0,"Type":"私立認可保育所","Name":"まめどくれっしゅ","AgeS":"産休明け","AgeE":"就学前","Open":"7:00","Close":"20:00","H24":"","Memo":"","Extra":"Y","Temp":"Y","Holiday":"","Night":"","プレ幼稚園":"","園バス":"","給食":"","Add1":"横浜市港北区大豆戸町40-3","Add2":"","TEL":"045-545-5002","FAX":"","児童発達支援":"","重心（児童発達）":"","放課後デイ":"","重心（放課後デイ）":"","url":"http://www.popinzu.jp/nursery/mamedo.html"},"type":"Feature","geometry":{"type":"Point","coordinates":[139.63414,35.51928]}},{"properties":{"Full":90,"設立年月":0,"Type":"私立認可保育所","Name":"大豆戸どろんこ保育園","AgeS":"産休明け","AgeE":"就学前","Open":"7:00","Close":"20:00","H24":"","Memo":"","Extra":"Y","Temp":"Y","Holiday":"","Night":"","プレ幼稚園":"","園バス":"","給食":"","Add1":"横浜市港北区大豆戸町943","Add2":"","TEL":"045-710-0906","FAX":"","児童発達支援":"","重心（児童発達）":"","放課後デイ":"","重心（放課後デイ）":"","url":"http://www.doronko.biz/nursery/mamedo.php"},"type":"Feature","geometry":{"type":"Point","coordinates":[139.62403,35.5167]}},{"properties":{"Full":90,"設立年月":0,"Type":"私立認可保育所","Name":"めぐみ保育園","AgeS":"５か月","AgeE":"就学前","Open":"7:00","Close":"20:00","H24":"","Memo":"","Extra":"Y","Temp":"","Holiday":"","Night":"","プレ幼稚園":"","園バス":"","給食":"","Add1":"横浜市港北区新吉田東3-39-15","Add2":"","TEL":"045-590-0590","FAX":"","児童発達支援":"","重心（児童発達）":"","放課後デイ":"","重心（放課後デイ）":"","url":"http://megumi.hazawa.jp/"},"type":"Feature","geometry":{"type":"Point","coordinates":[139.61635,35.54388]}},{"properties":{"Full":60,"設立年月":0,"Type":"私立認可保育所","Name":"森のエルマー保育園","AgeS":"産休明け","AgeE":"就学前","Open":"7:00","Close":"20:30","H24":"","Memo":"","Extra":"Y","Temp":"","Holiday":"","Night":"","プレ幼稚園":"","園バス":"","給食":"","Add1":"横浜市港北区新吉田東3-6-33","Add2":"","TEL":"045-546-6202","FAX":"","児童発達支援":"","重心（児童発達）":"","放課後デイ":"","重心（放課後デイ）":"","url":"http://elmer-kids.com/"},"type":"Feature","geometry":{"type":"Point","coordinates":[139.61737,35.54615]}},{"properties":{"Full":120,"設立年月":0,"Type":"私立認可保育所","Name":"森の樹保育園","AgeS":"産休明け","AgeE":"就学前","Open":"7:30","Close":"20:00","H24":"","Memo":"","Extra":"Y","Temp":"Y","Holiday":"","Night":"","プレ幼稚園":"","園バス":"","給食":"","Add1":"横浜市港北区大倉山1-22-5","Add2":"","TEL":"045-533-0242","FAX":"","児童発達支援":"","重心（児童発達）":"","放課後デイ":"","重心（放課後デイ）":"","url":"http://www.nazuna.bz/"},"type":"Feature","geometry":{"type":"Point","coordinates":[139.63061,35.51799]}},{"properties":{"Full":90,"設立年月":0,"Type":"私立認可保育所","Name":"横浜りとるぱんぷきんず","AgeS":"産休明け","AgeE":"就学前","Open":"7:00","Close":"20:00","H24":"","Memo":"","Extra":"Y","Temp":"Y","Holiday":"","Night":"","プレ幼稚園":"","園バス":"","給食":"","Add1":"横浜市港北区日吉本町4-10-49","Add2":"","TEL":"045-560-5645","FAX":"","児童発達支援":"","重心（児童発達）":"","放課後デイ":"","重心（放課後デイ）":"","url":"http://www.seikoukai.or.jp/yokohama/"},"type":"Feature","geometry":{"type":"Point","coordinates":[139.63461,35.54575]}},{"properties":{"Full":60,"設立年月":0,"Type":"私立認可保育所","Name":"リトルスカラー妙蓮寺保育園","AgeS":"産休明け","AgeE":"就学前","Open":"7:00","Close":"19:30","H24":"","Memo":"","Extra":"Y","Temp":"","Holiday":"","Night":"","プレ幼稚園":"","園バス":"","給食":"","Add1":"横浜市港北区菊名1-17-8","Add2":"","TEL":"045-401-9002","FAX":"","児童発達支援":"","重心（児童発達）":"","放課後デイ":"","重心（放課後デイ）":"","url":"http://ls-myorenji.com/"},"type":"Feature","geometry":{"type":"Point","coordinates":[139.63444,35.50328]}},{"properties":{"Full":76,"設立年月":0,"Type":"私立認可保育所","Name":"わおわお大倉山保育園","AgeS":"産休明け","AgeE":"就学前","Open":"7:00","Close":"20:30","H24":"","Memo":"","Extra":"Y","Temp":"Y","Holiday":"","Night":"","プレ幼稚園":"","園バス":"","給食":"","Add1":"横浜市港北区大倉山5-7-2ダイアパレス大倉山弐番館1Ｆ","Add2":"","TEL":"045-549-6380","FAX":"","児童発達支援":"","重心（児童発達）":"","放課後デイ":"","重心（放課後デイ）":"","url":"http://www.waowao.or.jp/nursery/nursery02.html"},"type":"Feature","geometry":{"type":"Point","coordinates":[139.62409,35.52408]}},{"properties":{"Full":60,"設立年月":0,"Type":"私立認可保育所","Name":"テンダーラビング保育園綱島東","AgeS":"産休明け","AgeE":"就学前","Open":"7:30","Close":"20:30","H24":"","Memo":"","Extra":"Y","Temp":"","Holiday":"","Night":"","プレ幼稚園":"","園バス":"","給食":"","Add1":"横浜市港北区綱島東4-10-34","Add2":"","TEL":"045-633-7258","FAX":"","児童発達支援":"","重心（児童発達）":"","放課後デイ":"","重心（放課後デイ）":"","url":"http://www.tenderlove.co.jp/tsunashima/"},"type":"Feature","geometry":{"type":"Point","coordinates":[139.64618,35.54159]}},{"properties":{"Full":60,"設立年月":0,"Type":"私立認可保育所","Name":"わかさと保育園","AgeS":"産休明け","AgeE":"就学前","Open":"7:00","Close":"20:30","H24":"","Memo":"","Extra":"Y","Temp":"Y","Holiday":"","Night":"","プレ幼稚園":"","園バス":"","給食":"","Add1":"横浜市港北区綱島西6-3-13-1F","Add2":"","TEL":"045-546-0551","FAX":"","児童発達支援":"","重心（児童発達）":"","放課後デイ":"","重心（放課後デイ）":"","url":"http://kore.mitene.or.jp/~saburi/wakasato/"},"type":"Feature","geometry":{"type":"Point","coordinates":[139.63609,35.54477]}},{"properties":{"Full":19,"設立年月":0,"Type":"小規模・事業所内保育事業","Name":"キッズパートナー大倉山","AgeS":"１歳","AgeE":"2歳","Open":"7:00","Close":"19:00","H24":"","Memo":"","Extra":"Y","Temp":"","Holiday":"","Night":"","プレ幼稚園":"","園バス":"","給食":"","Add1":"横浜市港北区大豆戸町113-１","Add2":"","TEL":"045-531-0220","FAX":"","児童発達支援":"","重心（児童発達）":"","放課後デイ":"","重心（放課後デイ）":"","url":"https://www.care-partner.com/service/childcare/okurayama/"},"type":"Feature","geometry":{"type":"Point","coordinates":[139.63241,35.518]}},{"properties":{"Full":19,"設立年月":0,"Type":"小規模・事業所内保育事業","Name":"港北こども園","AgeS":"産休明け","AgeE":"2歳","Open":"7:00","Close":"20:00","H24":"","Memo":"","Extra":"Y","Temp":"","Holiday":"","Night":"","プレ幼稚園":"","園バス":"","給食":"","Add1":"横浜市港北区大豆戸町365-1石井ビル3F","Add2":"","TEL":"045-547-6335","FAX":"","児童発達支援":"","重心（児童発達）":"","放課後デイ":"","重心（放課後デイ）":"","url":"http://www.cibi.net/kodomoen/"},"type":"Feature","geometry":{"type":"Point","coordinates":[139.62603,35.516]}},{"properties":{"Full":19,"設立年月":0,"Type":"小規模・事業所内保育事業","Name":"スターチス日吉保育園","AgeS":"生後57日～","AgeE":"2歳","Open":"7:30","Close":"19:30","H24":"","Memo":"","Extra":"Y","Temp":"","Holiday":"","Night":"","プレ幼稚園":"","園バス":"","給食":"","Add1":"横浜市港北区日吉本町1-23-12テルージュ菊名1-102","Add2":"","TEL":"045-562-8108","FAX":"","児童発達支援":"","重心（児童発達）":"","放課後デイ":"","重心（放課後デイ）":"","url":"http://www.statice-ns.or.jp/guidance_01.html"},"type":"Feature","geometry":{"type":"Point","coordinates":[139.64592,35.55275]}},{"properties":{"Full":19,"設立年月":0,"Type":"小規模・事業所内保育事業","Name":"ピッコロ・グランデ新横浜","AgeS":"6か月","AgeE":"2歳","Open":"7:15","Close":"19:15","H24":"","Memo":"","Extra":"Y","Temp":"","Holiday":"","Night":"","プレ幼稚園":"","園バス":"","給食":"","Add1":"横浜市港北区新横浜1-2-6","Add2":"","TEL":"045-471-8688","FAX":"","児童発達支援":"","重心（児童発達）":"","放課後デイ":"","重心（放課後デイ）":"","url":"http://senrikai.jp/hoiku.html"},"type":"Feature","geometry":{"type":"Point","coordinates":[139.61064,35.5025]}},{"properties":{"Full":19,"設立年月":0,"Type":"小規模・事業所内保育事業","Name":"キッズパートナー日吉","AgeS":"産休明け","AgeE":"2歳","Open":"7:00","Close":"19:00","H24":"","Memo":"","Extra":"Y","Temp":"","Holiday":"","Night":"","プレ幼稚園":"","園バス":"","給食":"","Add1":"横浜市港北区箕輪町1-3-10","Add2":"","TEL":"045-560-2300","FAX":"","児童発達支援":"","重心（児童発達）":"","放課後デイ":"","重心（放課後デイ）":"","url":"https://www.care-partner.com/service/childcare/hiyoshi/"},"type":"Feature","geometry":{"type":"Point","coordinates":[139.64773,35.55057]}},{"properties":{"Full":19,"設立年月":0,"Type":"小規模・事業所内保育事業","Name":"MIRAio新横浜","AgeS":"産休明け","AgeE":"2歳","Open":"7:15","Close":"20:00","H24":"","Memo":"","Extra":"Y","Temp":"","Holiday":"","Night":"","プレ幼稚園":"","園バス":"","給食":"","Add1":"横浜市港北区新横浜3-12-4エクステ新横浜ビル１Ｆ","Add2":"","TEL":"045-620-7510","FAX":"","児童発達支援":"","重心（児童発達）":"","放課後デイ":"","重心（放課後デイ）":"","url":"http://www.miraio.net/shokibo/"},"type":"Feature","geometry":{"type":"Point","coordinates":[139.62107,35.513]}},{"properties":{"Full":10,"設立年月":0,"Type":"小規模・事業所内保育事業","Name":"Luce陽だまりの家保育園","AgeS":"産休明け","AgeE":"2歳","Open":"7:30","Close":"18:30","H24":"","Memo":"","Extra":"","Temp":"","Holiday":"","Night":"","プレ幼稚園":"","園バス":"","給食":"","Add1":"横浜市港北区富士塚2-28-16-テルージュ菊名I-102","Add2":"","TEL":"045-716-8580","FAX":"","児童発達支援":"","重心（児童発達）":"","放課後デイ":"","重心（放課後デイ）":"","url":"http://www.luce.or.jp/philosophy/"},"type":"Feature","geometry":{"type":"Point","coordinates":[139.62899,35.5048]}},{"properties":{"Full":19,"設立年月":0,"Type":"小規模・事業所内保育事業","Name":"Luce陽だまりの家保育園綱島","AgeS":"産休明け","AgeE":"2歳","Open":"7:30","Close":"18:30","H24":"","Memo":"","Extra":"","Temp":"","Holiday":"","Night":"","プレ幼稚園":"","園バス":"","給食":"","Add1":"横浜市港北区綱島東4-9-28エアリーハイツ1Ｆ","Add2":"","TEL":"045-718-6466","FAX":"","児童発達支援":"","重心（児童発達）":"","放課後デイ":"","重心（放課後デイ）":"","url":"http://www.luce.or.jp/philosophy/"},"type":"Feature","geometry":{"type":"Point","coordinates":[139.64532,35.54183]}},{"properties":{"Full":19,"設立年月":0,"Type":"小規模・事業所内保育事業","Name":"ちいさなたね保育園","AgeS":"産休明け","AgeE":"2歳","Open":"7:30","Close":"18:30","H24":"","Memo":"","Extra":"","Temp":"","Holiday":"","Night":"","プレ幼稚園":"","園バス":"","給食":"","Add1":"横浜市港北区師岡町824","Add2":"","TEL":"045-515-0619","FAX":"","児童発達支援":"","重心（児童発達）":"","放課後デイ":"","重心（放課後デイ）":"","url":"http://www.bi-no.org/tane.html"},"type":"Feature","geometry":{"type":"Point","coordinates":[139.64362,35.52649]}},{"properties":{"Full":8,"設立年月":0,"Type":"小規模・事業所内保育事業","Name":"日吉チューリップルーム","AgeS":"6か月","AgeE":"2歳","Open":"7:30","Close":"18:30","H24":"","Memo":"","Extra":"","Temp":"","Holiday":"","Night":"","プレ幼稚園":"","園バス":"","給食":"","Add1":"横浜市港北区箕輪町1-16-18グリーン・ヴュー小嶋101号室","Add2":"","TEL":"045-620-0477","FAX":"","児童発達支援":"","重心（児童発達）":"","放課後デイ":"","重心（放課後デイ）":"","url":"http://tuliproom.info/hiyoshi/"},"type":"Feature","geometry":{"type":"Point","coordinates":[139.64687,35.54985]}},{"properties":{"Full":14,"設立年月":0,"Type":"小規模・事業所内保育事業","Name":"ローズ保育園","AgeS":"1歳","AgeE":"2歳","Open":"9:00","Close":"17:00","H24":"","Memo":"","Extra":"","Temp":"","Holiday":"","Night":"","プレ幼稚園":"","園バス":"","給食":"","Add1":"横浜市港北区高田西2-21-11","Add2":"","TEL":"045-593-0595","FAX":"","児童発達支援":"","重心（児童発達）":"","放課後デイ":"","重心（放課後デイ）":"","url":"http://www.city.yokohama.lg.jp/kodomo/unei/hdata/ji0001.html"},"type":"Feature","geometry":{"type":"Point","coordinates":[139.61601,35.55209]}},{"properties":{"Full":19,"設立年月":0,"Type":"小規模・事業所内保育事業","Name":"尚花ぞうさん保育室","AgeS":"6か月","AgeE":"2歳","Open":"7:00","Close":"19:00","H24":"","Memo":"","Extra":"","Temp":"","Holiday":"","Night":"","プレ幼稚園":"","園バス":"","給食":"","Add1":"横浜市港北区綱島西2-15-14","Add2":"","TEL":"045-717-7471","FAX":"","児童発達支援":"","重心（児童発達）":"","放課後デイ":"","重心（放課後デイ）":"","url":"http://www.shoka-aijien.or.jp/publics/index/43/"},"type":"Feature","geometry":{"type":"Point","coordinates":[139.6301,35.53556]}},{"properties":{"Full":19,"設立年月":0,"Type":"小規模・事業所内保育事業","Name":"天才キッズクラブ楽遊館綱島園","AgeS":"10か月","AgeE":"2歳","Open":"7:00","Close":"20:00","H24":"","Memo":"","Extra":"","Temp":"","Holiday":"","Night":"","プレ幼稚園":"","園バス":"","給食":"","Add1":"横浜市港北区綱島東1-12-2","Add2":"","TEL":"045-642-8815","FAX":"","児童発達支援":"","重心（児童発達）":"","放課後デイ":"","重心（放課後デイ）":"","url":"http://tensaikids.jp/"},"type":"Feature","geometry":{"type":"Point","coordinates":[139.63809,35.53514]}},{"properties":{"Full":19,"設立年月":0,"Type":"小規模・事業所内保育事業","Name":"ベイキッズ星の森保育園","AgeS":"産休明け","AgeE":"2歳","Open":"7:30","Close":"19:00","H24":"","Memo":"","Extra":"","Temp":"","Holiday":"","Night":"","プレ幼稚園":"","園バス":"","給食":"","Add1":"横浜市港北区下田町4-1サンヴァリエ日吉８号棟101号","Add2":"","TEL":"045-873-3509","FAX":"","児童発達支援":"","重心（児童発達）":"","放課後デイ":"","重心（放課後デイ）":"","url":"http://www.bay-kids.com/hoshinomori/"},"type":"Feature","geometry":{"type":"Point","coordinates":[139.63202,35.55593]}},{"properties":{"Full":19,"設立年月":0,"Type":"小規模・事業所内保育事業","Name":"preschool ALICE Clover","AgeS":"産休明け","AgeE":"2歳","Open":"7:30","Close":"19:30","H24":"","Memo":"","Extra":"","Temp":"","Holiday":"","Night":"","プレ幼稚園":"","園バス":"","給食":"","Add1":"横浜市港北区綱島東3-5-50","Add2":"","TEL":"045-633-4701","FAX":"","児童発達支援":"","重心（児童発達）":"","放課後デイ":"","重心（放課後デイ）":"","url":"http://hoikuroom-clover.jp/"},"type":"Feature","geometry":{"type":"Point","coordinates":[139.64288,35.53907]}},{"properties":{"Full":19,"設立年月":0,"Type":"小規模・事業所内保育事業","Name":"くじら保育園","AgeS":"3か月","AgeE":"2歳","Open":"7:30","Close":"18:30","H24":"","Memo":"","Extra":"","Temp":"","Holiday":"","Night":"","プレ幼稚園":"","園バス":"","給食":"","Add1":"横浜市港北区下田町5-29-23-1Ｆ","Add2":"","TEL":"045-594-6707","FAX":"","児童発達支援":"","重心（児童発達）":"","放課後デイ":"","重心（放課後デイ）":"","url":"http://www.kujiranoko.com/"},"type":"Feature","geometry":{"type":"Point","coordinates":[139.62686,35.55803]}},{"properties":{"Full":19,"設立年月":0,"Type":"小規模・事業所内保育事業","Name":"ジャンプ保育園","AgeS":"6ヵ月","AgeE":"2歳","Open":"7:30","Close":"19:00","H24":"","Memo":"","Extra":"","Temp":"","Holiday":"","Night":"","プレ幼稚園":"","園バス":"","給食":"","Add1":"横浜市港北区日吉本町3-33-16-101","Add2":"","TEL":"045-620-5252","FAX":"","児童発達支援":"","重心（児童発達）":"","放課後デイ":"","重心（放課後デイ）":"","url":"http://www.city.yokohama.lg.jp/kodomo/unei/hdata/s0112.html"},"type":"Feature","geometry":{"type":"Point","coordinates":[139.6366,35.54991]}},{"properties":{"Full":42,"設立年月":0,"Type":"私立認可保育所","Name":"下田みんなの保育園","AgeS":"1歳","AgeE":"就学前","Open":"7:30","Close":"18:30","H24":"","Memo":"『日吉みんなの保育園』から分園","Extra":"","Temp":"","Holiday":"","Night":"","プレ幼稚園":"","園バス":"","給食":"","Add1":"横浜市港北区下田町1-3-41","Add2":"","TEL":"045-595-9522","FAX":"045-595-9523","児童発達支援":"","重心（児童発達）":"","放課後デイ":"","重心（放課後デイ）":"","url":"http://www001.upp.so-net.ne.jp/hiyoshiminna/6oshirase.html"},"type":"Feature","geometry":{"type":"Point","coordinates":[139.63642,35.55817]}},{"properties":{"Full":60,"設立年月":0,"Type":"私立認可保育所","Name":"ブライト保育園横浜日吉","AgeS":"６ヶ月","AgeE":"就学前","Open":"7:00","Close":"20:00","H24":"","Memo":"ブライト保育園横浜佐江戸","Extra":"","Temp":"","Holiday":"","Night":"","プレ幼稚園":"","園バス":"","給食":"","Add1":"横浜市港北区日吉5-21-1","Add2":"","TEL":"045-565-0190","FAX":"045-565-0191","児童発達支援":"","重心（児童発達）":"","放課後デイ":"","重心（放課後デイ）":"","url":"http://saiseikai.net/brighthiyoshi/index.html"},"type":"Feature","geometry":{"type":"Point","coordinates":[139.65467,35.54599]}},{"properties":{"Full":70,"設立年月":0,"Type":"私立認可保育所","Name":"キッズパオ日吉あおぞら園","AgeS":"生後57日～","AgeE":"５歳児","Open":"7:30","Close":"18:30","H24":"","Memo":"㈱マミーズファミリー東京オフィス","Extra":"","Temp":"","Holiday":"","Night":"","プレ幼稚園":"","園バス":"","給食":"","Add1":"横浜市港北区日吉5-29-18","Add2":"","TEL":"045-620-9930","FAX":"045-620-9930","児童発達支援":"","重心（児童発達）":"","放課後デイ":"","重心（放課後デイ）":"","url":"http://www.mammys-f.jp/index.php"},"type":"Feature","geometry":{"type":"Point","coordinates":[139.65607,35.55073]}},{"properties":{"Full":45,"設立年月":0,"Type":"私立認可保育所","Name":"ポピンズナーサリースクール綱島","AgeS":"生後57日～","AgeE":"就学前児童","Open":"7:30","Close":"18:30","H24":"","Memo":"㈱ポピンズナーサリー事業本部オペレーション部","Extra":"","Temp":"","Holiday":"","Night":"","プレ幼稚園":"","園バス":"","給食":"","Add1":"横浜市港北区綱島東3丁目2番15号","Add2":"","TEL":"045-470-6621","FAX":"045-470-6979","児童発達支援":"","重心（児童発達）":"","放課後デイ":"","重心（放課後デイ）":"","url":"https://www.poppins.co.jp/nursery/room/"},"type":"Feature","geometry":{"type":"Point","coordinates":[139.64145,35.53814]}},{"properties":{"Full":78,"設立年月":0,"Type":"私立認可保育所","Name":"木下の保育園　綱島東","AgeS":"0歳","AgeE":"就学前","Open":"7:30","Close":"20:30","H24":"","Memo":"木下の保育運営部","Extra":"","Temp":"","Holiday":"","Night":"","プレ幼稚園":"","園バス":"","給食":"","Add1":"横浜市港北区綱島東4-5-35","Add2":"","TEL":"045-543-6506","FAX":"045-543-6506","児童発達支援":"","重心（児童発達）":"","放課後デイ":"","重心（放課後デイ）":"","url":"https://www.kinoshita-hoiku.com/facility/tsunashimahigashi"},"type":"Feature","geometry":{"type":"Point","coordinates":[139.64323,35.54198]}},{"properties":{"Full":60,"設立年月":0,"Type":"私立認可保育所","Name":"ブライト保育園　横浜綱島 ","AgeS":"0歳","AgeE":"５歳","Open":"7:00","Close":"20:00","H24":"","Memo":"社会福祉法人済聖会　","Extra":"","Temp":"","Holiday":"","Night":"","プレ幼稚園":"","園バス":"","給食":"","Add1":"横浜市港北区新吉田東1丁目6-26","Add2":"","TEL":"045-542-0190","FAX":"045-542-0190","児童発達支援":"","重心（児童発達）":"","放課後デイ":"","重心（放課後デイ）":"","url":"http://saiseikai.net/brighttsunashima/"},"type":"Feature","geometry":{"type":"Point","coordinates":[139.62301,35.54169]}},{"properties":{"Full":60,"設立年月":0,"Type":"私立認可保育所","Name":"スターチャイルド（新吉田ナーサリー）","AgeS":"0歳","AgeE":"５歳","Open":"7:00","Close":"20:00","H24":"","Memo":"運営本部","Extra":"","Temp":"","Holiday":"","Night":"","プレ幼稚園":"","園バス":"","給食":"","Add1":"横浜市港北区新吉田東7-28-1","Add2":"","TEL":"045-544-0366","FAX":"045-544-0367","児童発達支援":"","重心（児童発達）":"","放課後デイ":"","重心（放課後デイ）":"","url":"https://www.starchild.jp/"},"type":"Feature","geometry":{"type":"Point","coordinates":[139.61761,35.53275]}},{"properties":{"Full":80,"設立年月":0,"Type":"私立認可保育所","Name":"コビープリスクールつなしま","AgeS":"生後57日～","AgeE":"就学前","Open":"7:00","Close":"20:00","H24":"","Memo":"","Extra":"","Temp":"","Holiday":"","Night":"","プレ幼稚園":"","園バス":"","給食":"","Add1":"横浜市港北区綱島上町91-1","Add2":"","TEL":"045-633-8099","FAX":"045-546-2777","児童発達支援":"","重心（児童発達）":"","放課後デイ":"","重心（放課後デイ）":"","url":"http://www.coby.jp/"},"type":"Feature","geometry":{"type":"Point","coordinates":[139.62358,35.53582]}},{"properties":{"Full":60,"設立年月":0,"Type":"私立認可保育所","Name":"ベネッセ綱島台保育園","AgeS":"生後57日～","AgeE":"就学前","Open":"7:00","Close":"20:00","H24":"","Memo":"㈱ベネッセスタイルケア　本部","Extra":"","Temp":"","Holiday":"","Night":"","プレ幼稚園":"","園バス":"","給食":"","Add1":"横浜市港北区綱島台17-23","Add2":"","TEL":"045-534-0351","FAX":"045-534-0352","児童発達支援":"","重心（児童発達）":"","放課後デイ":"","重心（放課後デイ）":"","url":"http://hoiku.benesse-style-care.co.jp/nursery/id20160510115854/"},"type":"Feature","geometry":{"type":"Point","coordinates":[139.63226,35.54303]}},{"properties":{"Full":30,"設立年月":0,"Type":"私立認可保育所","Name":"聖保育園第二","AgeS":"生後57日～","AgeE":"3歳","Open":"7:30","Close":"20:00","H24":"","Memo":"聖保育園","Extra":"","Temp":"Y","Holiday":"","Night":"","プレ幼稚園":"","園バス":"","給食":"","Add1":"横浜市港北区大倉山1-11-8","Add2":"","TEL":"045-542-7375","FAX":"045-542-7376","児童発達支援":"","重心（児童発達）":"","放課後デイ":"","重心（放課後デイ）":"","url":"http://hijirihoikuen.com/"},"type":"Feature","geometry":{"type":"Point","coordinates":[139.63119,35.52126]}},{"properties":{"Full":90,"設立年月":0,"Type":"私立認可保育所","Name":"グローバルキッズ菊名園","AgeS":"生後57日～","AgeE":"就学前","Open":"7:30","Close":"20:30","H24":"","Memo":"横浜保育室グローバルキッズ菊名園","Extra":"","Temp":"Y","Holiday":"","Night":"","プレ幼稚園":"","園バス":"","給食":"","Add1":"横浜市港北区菊名6-3-20 IKUZUS KIKUNA","Add2":"","TEL":"045ｰ421-3577","FAX":"045-642-3047","児童発達支援":"","重心（児童発達）":"","放課後デイ":"","重心（放課後デイ）":"","url":"http://www.gkids.co.jp/facilities/nursery_011.html"},"type":"Feature","geometry":{"type":"Point","coordinates":[139.63193,35.512]}},{"properties":{"Full":71,"設立年月":0,"Type":"私立認可保育所","Name":"光の園アンティー保育園","AgeS":"生後57日～","AgeE":"就学前","Open":"7:00","Close":"20:00","H24":"","Memo":"※分園有り：横浜市港北区菊名1-3-8","Extra":"","Temp":"Y","Holiday":"","Night":"","プレ幼稚園":"","園バス":"","給食":"","Add1":"横浜市港北区菊名1-6-14 他","Add2":"","TEL":"045-716-8326","FAX":"","児童発達支援":"","重心（児童発達）":"","放課後デイ":"","重心（放課後デイ）":"","url":"http://www.aunty-i.com/index.html"},"type":"Feature","geometry":{"type":"Point","coordinates":[139.63253,35.498]}},{"properties":{"Full":200,"設立年月":0,"Type":"幼稚園","Name":"エンゼル幼稚園","AgeS":"3歳","AgeE":"5歳","Open":"8:45","Close":"13:45","H24":"","Memo":"","Extra":"","Temp":"","Holiday":"","Night":"","プレ幼稚園":"Y","園バス":"Y","給食":"なし","Add1":"横浜市港北区日吉本町4-17-15","Add2":"","TEL":"045-562-0061","FAX":"045-564-1681","児童発達支援":"","重心（児童発達）":"","放課後デイ":"","重心（放課後デイ）":"","url":"http://www.city.yokohama.lg.jp/kodomo/youji/kdata/k8001.html"},"type":"Feature","geometry":{"type":"Point","coordinates":[139.63167,35.54669]}},{"properties":{"Full":0,"設立年月":0,"Type":"幼稚園","Name":"大倉山アソカ幼稚園","AgeS":"","AgeE":"","Open":"","Close":"","H24":"","Memo":"","Extra":"","Temp":"","Holiday":"","Night":"","プレ幼稚園":"Y","園バス":"N","給食":"なし","Add1":"横浜市港北区大倉山2-8-7","Add2":"","TEL":"045-531-2054","FAX":"","児童発達支援":"","重心（児童発達）":"","放課後デイ":"","重心（放課後デイ）":"","url":"http://www.kanjoin-okurayamaasoka.com/"},"type":"Feature","geometry":{"type":"Point","coordinates":[139.6256,35.52439]}},{"properties":{"Full":0,"設立年月":0,"Type":"幼稚園","Name":"大谷学園幼稚園","AgeS":"","AgeE":"","Open":"","Close":"","H24":"","Memo":"","Extra":"","Temp":"","Holiday":"","Night":"","プレ幼稚園":"Y","園バス":"Y","給食":"週2日","Add1":"横浜市港北区篠原台町20-1","Add2":"","TEL":"045-433-1144","FAX":"","児童発達支援":"","重心（児童発達）":"","放課後デイ":"","重心（放課後デイ）":"","url":"http://www.ootani-k.ed.jp/"},"type":"Feature","geometry":{"type":"Point","coordinates":[139.62816,35.49293]}},{"properties":{"Full":0,"設立年月":0,"Type":"幼稚園","Name":"桂幼稚園","AgeS":"","AgeE":"","Open":"","Close":"","H24":"","Memo":"","Extra":"","Temp":"","Holiday":"","Night":"","プレ幼稚園":"Y","園バス":"Y","給食":"なし","Add1":"横浜市港北区高田東1-24-18","Add2":"","TEL":"045-531-0540","FAX":"","児童発達支援":"","重心（児童発達）":"","放課後デイ":"","重心（放課後デイ）":"","url":"http://katsurayouchien.com/"},"type":"Feature","geometry":{"type":"Point","coordinates":[139.62566,35.54545]}},{"properties":{"Full":0,"設立年月":0,"Type":"幼稚園","Name":"金港幼稚園","AgeS":"","AgeE":"","Open":"","Close":"","H24":"","Memo":"","Extra":"","Temp":"","Holiday":"","Night":"","プレ幼稚園":"Y","園バス":"N","給食":"なし","Add1":"横浜市港北区篠原東1-12-2","Add2":"","TEL":"045-421-7360","FAX":"","児童発達支援":"","重心（児童発達）":"","放課後デイ":"","重心（放課後デイ）":"","url":"http://www.kinkou-kg.ed.jp/"},"type":"Feature","geometry":{"type":"Point","coordinates":[139.62463,35.49755]}},{"properties":{"Full":0,"設立年月":0,"Type":"幼稚園","Name":"光明幼稚園","AgeS":"","AgeE":"","Open":"","Close":"","H24":"","Memo":"","Extra":"","Temp":"","Holiday":"","Night":"","プレ幼稚園":"Y","園バス":"Y","給食":"なし","Add1":"横浜市港北区高田西4-34-26","Add2":"","TEL":"045-593-3003","FAX":"","児童発達支援":"","重心（児童発達）":"","放課後デイ":"","重心（放課後デイ）":"","url":"http://koumyougenki.com/index.htm"},"type":"Feature","geometry":{"type":"Point","coordinates":[139.617,35.55567]}},{"properties":{"Full":0,"設立年月":0,"Type":"幼稚園","Name":"小机幼稚園","AgeS":"","AgeE":"","Open":"","Close":"","H24":"","Memo":"","Extra":"","Temp":"","Holiday":"","Night":"","プレ幼稚園":"N","園バス":"N","給食":"なし","Add1":"横浜市港北区小机町256","Add2":"","TEL":"045-471-9038","FAX":"","児童発達支援":"","重心（児童発達）":"","放課後デイ":"","重心（放課後デイ）":"","url":"http://www2.kozukue.ed.jp/~kozukue/index2.html"},"type":"Feature","geometry":{"type":"Point","coordinates":[139.58555,35.50698]}},{"properties":{"Full":287,"設立年月":0,"Type":"認定こども園","Name":"認定こども園しのはら幼稚園","AgeS":"3歳","AgeE":"5歳","Open":"7:30","Close":"18:30","H24":"","Memo":"7:30～9:00、14:00～18:30","Extra":"Y","Temp":"","Holiday":"","Night":"","プレ幼稚園":"Y","園バス":"Y","給食":"週2日","Add1":"横浜市港北区篠原町1163","Add2":"","TEL":"045-432-6506","FAX":"045-432-6507","児童発達支援":"","重心（児童発達）":"","放課後デイ":"","重心（放課後デイ）":"","url":"http://www.shinohara.ed.jp/"},"type":"Feature","geometry":{"type":"Point","coordinates":[139.6175,35.49879]}},{"properties":{"Full":400,"設立年月":0,"Type":"幼稚園","Name":"城郷幼稚園","AgeS":"3歳","AgeE":"就学前","Open":"9:30","Close":"14:00","H24":"","Memo":"7:00～9:30、14:00～17:30","Extra":"Y","Temp":"","Holiday":"","Night":"","プレ幼稚園":"N","園バス":"Y","給食":"週2日","Add1":"横浜市港北区鳥山町730","Add2":"","TEL":"045-471-9127","FAX":"045-475-2817","児童発達支援":"","重心（児童発達）":"","放課後デイ":"","重心（放課後デイ）":"","url":"http://www.siroyou.net/"},"type":"Feature","geometry":{"type":"Point","coordinates":[139.60461,35.50356]}},{"properties":{"Full":350,"設立年月":0,"Type":"幼稚園","Name":"しんよしだ幼稚園","AgeS":"3歳","AgeE":"就学前","Open":"9:10","Close":"14:00","H24":"","Memo":"7:30～9:00、14:00～18:30","Extra":"Y","Temp":"","Holiday":"","Night":"","プレ幼稚園":"Y","園バス":"N","給食":"週1～2日","Add1":"横浜市港北区新吉田東5-51-28","Add2":"","TEL":"045-541-8628","FAX":"045-541-8735","児童発達支援":"","重心（児童発達）":"","放課後デイ":"","重心（放課後デイ）":"","url":"http://park10.wakwak.com/~shinyoshida-y/"},"type":"Feature","geometry":{"type":"Point","coordinates":[139.61987,35.53916]}},{"properties":{"Full":175,"設立年月":0,"Type":"認定こども園","Name":"高木学園附属幼稚園","AgeS":"3歳","AgeE":"就学前","Open":"9:00","Close":"14:15","H24":"","Memo":"7:30～9:00、14:15～18:30","Extra":"Y","Temp":"","Holiday":"","Night":"","プレ幼稚園":"N","園バス":"Y","給食":"週４～５日","Add1":"横浜市港北区菊名7-3-30","Add2":"","TEL":"045-431-8180","FAX":"045-315-7710","児童発達支援":"","重心（児童発達）":"","放課後デイ":"","重心（放課後デイ）":"","url":"https://takagi-kids.ed.jp/"},"type":"Feature","geometry":{"type":"Point","coordinates":[139.63022,35.51524]}},{"properties":{"Full":210,"設立年月":0,"Type":"幼稚園","Name":"樽町白梅幼稚園","AgeS":"3歳","AgeE":"就学前","Open":"8:50","Close":"14:00","H24":"","Memo":"","Extra":"","Temp":"","Holiday":"","Night":"","プレ幼稚園":"Y","園バス":"N","給食":"なし","Add1":"横浜市港北区樽町1-18-12","Add2":"","TEL":"045-541-2998","FAX":"045-546-0726","児童発達支援":"","重心（児童発達）":"","放課後デイ":"","重心（放課後デイ）":"","url":"http://www5e.biglobe.ne.jp/~shiraume/"},"type":"Feature","geometry":{"type":"Point","coordinates":[139.63593,35.5285]}},{"properties":{"Full":180,"設立年月":0,"Type":"幼稚園","Name":"長福寺幼稚園","AgeS":"3歳","AgeE":"就学前","Open":"9:00","Close":"14:00","H24":"","Memo":"8:00～9:00、14:00～17:00","Extra":"Y","Temp":"","Holiday":"","Night":"","プレ幼稚園":"N","園バス":"N","給食":"なし","Add1":"横浜市港北区綱島西6-8-29","Add2":"","TEL":"045-531-0749","FAX":"045-531-4720","児童発達支援":"","重心（児童発達）":"","放課後デイ":"","重心（放課後デイ）":"","url":"http://tokufu.d.dooo.jp/index.html"},"type":"Feature","geometry":{"type":"Point","coordinates":[139.63819,35.54304]}},{"properties":{"Full":270,"設立年月":0,"Type":"幼稚園","Name":"長福寺第二幼稚園","AgeS":"3歳","AgeE":"就学前","Open":"10:00","Close":"14:00","H24":"","Memo":"8:00～10:00、14:00～17:00","Extra":"Y","Temp":"","Holiday":"","Night":"","プレ幼稚園":"N","園バス":"Y","給食":"なし","Add1":"横浜市港北区綱島台28-1","Add2":"","TEL":"045-542-6766","FAX":"045-542-6768","児童発達支援":"","重心（児童発達）":"","放課後デイ":"","重心（放課後デイ）":"","url":"http://tokufu.d.dooo.jp/index.html"},"type":"Feature","geometry":{"type":"Point","coordinates":[139.63677,35.53943]}},{"properties":{"Full":332,"設立年月":0,"Type":"幼稚園","Name":"チロル幼稚園","AgeS":"3歳","AgeE":"就学前","Open":"9:00","Close":"14:00","H24":"","Memo":"8:00～9:00、14:00～18:00","Extra":"Y","Temp":"","Holiday":"","Night":"","プレ幼稚園":"N","園バス":"Y","給食":"なし","Add1":"横浜市港北区日吉3-10-23","Add2":"","TEL":"045-563-2661","FAX":"045-563-1207","児童発達支援":"","重心（児童発達）":"","放課後デイ":"","重心（放課後デイ）":"","url":"http://www.tyrol.ed.jp/"},"type":"Feature","geometry":{"type":"Point","coordinates":[139.6516,35.55575]}},{"properties":{"Full":105,"設立年月":0,"Type":"幼稚園","Name":"綱島幼稚園","AgeS":"3歳","AgeE":"就学前","Open":"9:00","Close":"14:00","H24":"","Memo":"14:00～16:00","Extra":"Y","Temp":"","Holiday":"","Night":"","プレ幼稚園":"Y","園バス":"N","給食":"なし","Add1":"横浜市港北区綱島西1-13-15","Add2":"","TEL":"045-531-0640","FAX":"045-531-4615","児童発達支援":"","重心（児童発達）":"","放課後デイ":"","重心（放課後デイ）":"","url":"http://www.tsunashima-youchien.jp/"},"type":"Feature","geometry":{"type":"Point","coordinates":[139.63336,35.53802]}},{"properties":{"Full":155,"設立年月":0,"Type":"認定こども園","Name":"新羽幼稚園","AgeS":"3歳","AgeE":"就学前","Open":"8:30","Close":"16:30","H24":"","Memo":"7:30～9:00、14:00～18:30","Extra":"Y","Temp":"","Holiday":"","Night":"","プレ幼稚園":"Y","園バス":"Y","給食":"あり","Add1":"横浜市港北区新羽町2876","Add2":"","TEL":"045-531-2348","FAX":"045-543-5093","児童発達支援":"","重心（児童発達）":"","放課後デイ":"","重心（放課後デイ）":"","url":"http://www.nippa-youchien.ed.jp/"},"type":"Feature","geometry":{"type":"Point","coordinates":[139.60351,35.52567]}},{"properties":{"Full":140,"設立年月":0,"Type":"幼稚園","Name":"伸びる会幼稚園","AgeS":"3歳","AgeE":"就学前","Open":"9:00","Close":"14:00","H24":"","Memo":"","Extra":"","Temp":"","Holiday":"","Night":"","プレ幼稚園":"Y","園バス":"N","給食":"なし","Add1":"横浜市港北区富士塚2-13-23","Add2":"","TEL":"045-431-3681","FAX":"045-431-3682","児童発達支援":"","重心（児童発達）":"","放課後デイ":"","重心（放課後デイ）":"","url":"http://www.nobirukai.ac.jp/"},"type":"Feature","geometry":{"type":"Point","coordinates":[139.63333,35.50485]}},{"properties":{"Full":140,"設立年月":0,"Type":"幼稚園","Name":"日吉さくら幼稚園","AgeS":"3歳","AgeE":"就学前","Open":"9:00","Close":"14:00","H24":"","Memo":"8:00～9:00、14:00～17:00","Extra":"Y","Temp":"","Holiday":"","Night":"","プレ幼稚園":"Y","園バス":"Y","給食":"週4日","Add1":"横浜市港北区下田町2-10-72","Add2":"","TEL":"045-563-8716","FAX":"045-562-1694","児童発達支援":"","重心（児童発達）":"","放課後デイ":"","重心（放課後デイ）":"","url":"http://www.hiyoshi-sakura.ed.jp/"},"type":"Feature","geometry":{"type":"Point","coordinates":[139.63835,35.55924]}},{"properties":{"Full":70,"設立年月":0,"Type":"幼稚園","Name":"日吉台光幼稚園","AgeS":"3歳","AgeE":"就学前","Open":"9:00","Close":"14:00","H24":"","Memo":"14:00～17:00","Extra":"Y","Temp":"","Holiday":"","Night":"","プレ幼稚園":"Y","園バス":"N","給食":"週2日","Add1":"横浜市港北区日吉本町1-7-14","Add2":"","TEL":"045-561-2169","FAX":"045-565-2563","児童発達支援":"","重心（児童発達）":"","放課後デイ":"","重心（放課後デイ）":"","url":"http://www.hikari-y.ed.jp/"},"type":"Feature","geometry":{"type":"Point","coordinates":[139.644,35.55502]}},{"properties":{"Full":131,"設立年月":0,"Type":"幼稚園","Name":"冨士見幼稚園","AgeS":"3歳","AgeE":"就学前","Open":"9:00","Close":"14:00","H24":"","Memo":"","Extra":"","Temp":"","Holiday":"","Night":"","プレ幼稚園":"Y","園バス":"Y","給食":"週2日","Add1":"横浜市港北区綱島西1-12-19","Add2":"","TEL":"045-531-0010","FAX":"","児童発達支援":"","重心（児童発達）":"","放課後デイ":"","重心（放課後デイ）":"","url":"http://www.fujimi-yokohama.jp/"},"type":"Feature","geometry":{"type":"Point","coordinates":[139.63376,35.53746]}},{"properties":{"Full":103,"設立年月":0,"Type":"幼稚園","Name":"プリンス幼稚園","AgeS":"3歳","AgeE":"就学前","Open":"8:50","Close":"14:00","H24":"","Memo":"H30.4新制度に移行","Extra":"Y","Temp":"","Holiday":"","Night":"","プレ幼稚園":"Y","園バス":"N","給食":"週1日","Add1":"横浜市港北区下田町3-16-10","Add2":"","TEL":"045-561-6414","FAX":"","児童発達支援":"","重心（児童発達）":"","放課後デイ":"","重心（放課後デイ）":"","url":"http://www.prince-kinder.org/top.html"},"type":"Feature","geometry":{"type":"Point","coordinates":[139.63116,35.55914]}},{"properties":{"Full":71,"設立年月":0,"Type":"私立認可保育所","Name":"光の園アンティー妙蓮寺保育園","AgeS":"3か月","AgeE":"5歳","Open":"7:00","Close":"20:00","H24":"","Memo":"","Extra":"","Temp":"","Holiday":"","Night":"","プレ幼稚園":"","園バス":"","給食":"","Add1":"横浜市港北区菊名1丁目3-8","Add2":"","TEL":"045-716-8326","FAX":"","児童発達支援":"","重心（児童発達）":"","放課後デイ":"","重心（放課後デイ）":"","url":"http://www.aunty-i.com/"},"type":"Feature","geometry":{"type":"Point","coordinates":[139.63253,35.49805]}},{"properties":{"Full":30,"設立年月":0,"Type":"横浜保育室","Name":"イルカ保育園","AgeS":"3か月","AgeE":"2歳","Open":"7:30","Close":"20:00","H24":"","Memo":"","Extra":"","Temp":"","Holiday":"","Night":"","プレ幼稚園":"","園バス":"","給食":"","Add1":"横浜市港北区日吉2-4-3","Add2":"","TEL":"045-561-6702","FAX":"","児童発達支援":"","重心（児童発達）":"","放課後デイ":"","重心（放課後デイ）":"","url":"http://www.city.yokohama.lg.jp/kodomo/unei/hdata/y0084.html"},"type":"Feature","geometry":{"type":"Point","coordinates":[139.64679,35.55469]}},{"properties":{"Full":0,"設立年月":0,"Type":"小規模・事業所内保育事業","Name":"エジュケアナーサリー","AgeS":"","AgeE":"","Open":"7:30","Close":"18:30","H24":"","Memo":"","Extra":"","Temp":"","Holiday":"","Night":"","プレ幼稚園":"","園バス":"","給食":"","Add1":"横浜市港北区新横浜3丁目23-3","Add2":"","TEL":"045-474-2504","FAX":"","児童発達支援":"","重心（児童発達）":"","放課後デイ":"","重心（放課後デイ）":"","url":"http://www.city.yokohama.lg.jp/kodomo/unei/hdata/s0146.html"},"type":"Feature","geometry":{"type":"Point","coordinates":[139.61481,35.50777]}},{"properties":{"Full":60,"設立年月":0,"Type":"横浜保育室","Name":"大倉山べびーるーむ","AgeS":"産休明け","AgeE":"2歳","Open":"7:30","Close":"20:00","H24":"","Memo":"","Extra":"","Temp":"","Holiday":"","Night":"","プレ幼稚園":"","園バス":"","給食":"","Add1":"横浜市港北区大倉山3-4-31ヒルズカモ2Ｆ・3Ｆ","Add2":"","TEL":"045-547-0302","FAX":"","児童発達支援":"","重心（児童発達）":"","放課後デイ":"","重心（放課後デイ）":"","url":"http://www.kidslink.jp/ohkurayama-baby/"},"type":"Feature","geometry":{"type":"Point","coordinates":[139.62878,35.52112]}},{"properties":{"Full":19,"設立年月":0,"Type":"小規模・事業所内保育事業","Name":"キッズパートナー綱島","AgeS":"産休明け","AgeE":"2歳","Open":"7:30","Close":"18:30","H24":"","Memo":"","Extra":"","Temp":"","Holiday":"","Night":"","プレ幼稚園":"","園バス":"","給食":"","Add1":"横浜市港北区綱島西3-6-19-シュロスウェスト綱島2Ｆ","Add2":"","TEL":"045-547-0076","FAX":"","児童発達支援":"","重心（児童発達）":"","放課後デイ":"","重心（放課後デイ）":"","url":"http://www.city.yokohama.lg.jp/kodomo/unei/hdata/y0198.html"},"type":"Feature","geometry":{"type":"Point","coordinates":[139.63039,35.53804]}},{"properties":{"Full":32,"設立年月":0,"Type":"横浜保育室","Name":"キッズラディ","AgeS":"4ヵ月","AgeE":"2歳","Open":"7:30","Close":"20:00","H24":"","Memo":"","Extra":"","Temp":"","Holiday":"","Night":"","プレ幼稚園":"","園バス":"","給食":"","Add1":"横浜市港北区大豆戸639-2ＫＭＭビル","Add2":"","TEL":"045-439-5025","FAX":"","児童発達支援":"","重心（児童発達）":"","放課後デイ":"","重心（放課後デイ）":"","url":"http://www.kyokushin-mm.jp/pages/50index"},"type":"Feature","geometry":{"type":"Point","coordinates":[139.62269,35.51265]}},{"properties":{"Full":70,"設立年月":0,"Type":"私立認可保育所","Name":"クレシュ新横浜","AgeS":"生後57日目","AgeE":"就学前","Open":"7:00","Close":"19:30","H24":"","Memo":"H30.4横浜保育室から認可に移行","Extra":"","Temp":"","Holiday":"","Night":"","プレ幼稚園":"","園バス":"","給食":"","Add1":"横浜市港北区新横浜2-13-13ＫＭ第一ビル1Ｆ","Add2":"","TEL":"045-473-5252","FAX":"","児童発達支援":"","重心（児童発達）":"","放課後デイ":"","重心（放課後デイ）":"","url":"http://www.creche-shinyokohama.net/"},"type":"Feature","geometry":{"type":"Point","coordinates":[139.61396,35.50937]}},{"properties":{"Full":90,"設立年月":0,"Type":"私立認可保育所","Name":"グローバルキッズ菊名園","AgeS":"産休明け","AgeE":"就学前","Open":"7:30","Close":"20:30","H24":"","Memo":"","Extra":"","Temp":"","Holiday":"","Night":"","プレ幼稚園":"","園バス":"","給食":"","Add1":"横浜市港北区菊名6-3-20 IKUZUS KIKUNA","Add2":"","TEL":"045-421-3577","FAX":"","児童発達支援":"","重心（児童発達）":"","放課後デイ":"","重心（放課後デイ）":"","url":"http://www.gkids.co.jp/facilities/nursery_011.html"},"type":"Feature","geometry":{"type":"Point","coordinates":[139.63192,35.51206]}},{"properties":{"Full":32,"設立年月":0,"Type":"横浜保育室","Name":"さくらんぼ保育園","AgeS":"産休明け","AgeE":"3歳","Open":"7:30","Close":"20:00","H24":"","Memo":"","Extra":"","Temp":"","Holiday":"","Night":"","プレ幼稚園":"","園バス":"","給食":"","Add1":"横浜市港北区日吉本町1-3-4たかせビル2Ｆ","Add2":"","TEL":"045-564-5518","FAX":"","児童発達支援":"","重心（児童発達）":"","放課後デイ":"","重心（放課後デイ）":"","url":"http://sakuranbo-hoikuen.com/"},"type":"Feature","geometry":{"type":"Point","coordinates":[139.64538,35.55398]}},{"properties":{"Full":110,"設立年月":0,"Type":"横浜保育室","Name":"SUNSUNキッズあいらんど","AgeS":"産休明け","AgeE":"３歳未満","Open":"7:00","Close":"21:00","H24":"","Memo":"","Extra":"","Temp":"","Holiday":"","Night":"","プレ幼稚園":"","園バス":"","給食":"","Add1":"横浜市港北区綱島西2-13-1弥生ショッピングセンター2Ｆ","Add2":"","TEL":"045-545-6575","FAX":"","児童発達支援":"","重心（児童発達）":"","放課後デイ":"","重心（放課後デイ）":"","url":"http://sunsun.server-shared.com/"},"type":"Feature","geometry":{"type":"Point","coordinates":[139.63111,35.53668]}},{"properties":{"Full":60,"設立年月":0,"Type":"私立認可保育所","Name":"（新設・仮称）特定非営利活動法人つばき駅前保育園","AgeS":"１歳","AgeE":"就学前","Open":"7:30","Close":"20:00","H24":"","Memo":"R4.4横浜保育室から認可に移行","Extra":"","Temp":"","Holiday":"","Night":"","プレ幼稚園":"","園バス":"","給食":"","Add1":"横浜市港北区大倉山1-4-5","Add2":"","TEL":"045-543-6700","FAX":"","児童発達支援":"","重心（児童発達）":"","放課後デイ":"","重心（放課後デイ）":"","url":"http://www.tsubaki-hoikuen.jp/"},"type":"Feature","geometry":{"type":"Point","coordinates":[139.63003,35.52284]}},{"properties":{"Full":54,"設立年月":0,"Type":"私立認可保育所","Name":"はなまる保育園","AgeS":"産休明け","AgeE":"2歳","Open":"7:30","Close":"20:00","H24":"","Memo":"H30.4横浜保育室から認可に移行","Extra":"","Temp":"","Holiday":"","Night":"","プレ幼稚園":"","園バス":"","給食":"","Add1":"横浜市港北区綱島東1-13-2ＭＫマンション第3　1Ｆ","Add2":"","TEL":"045-547-0555","FAX":"","児童発達支援":"","重心（児童発達）":"","放課後デイ":"","重心（放課後デイ）":"","url":"http://www13.plala.or.jp/hanamaruhoikuen/index.html"},"type":"Feature","geometry":{"type":"Point","coordinates":[139.63756,35.53633]}},{"properties":{"Full":60,"設立年月":0,"Type":"私立認可保育所","Name":"ベネッセ新横浜保育園","AgeS":"生後57日目","AgeE":"就学前","Open":"7:00","Close":"20:00","H24":"","Memo":"H30.4横浜保育室から認可に移行","Extra":"","Temp":"","Holiday":"","Night":"","プレ幼稚園":"","園バス":"","給食":"","Add1":"横浜市港北区綱島西2-1-7ＭＡＣ綱島コート2F","Add2":"","TEL":"045-476-5741","FAX":"","児童発達支援":"","重心（児童発達）":"","放課後デイ":"","重心（放課後デイ）":"","url":"http://hoiku.benesse-style-care.co.jp/"},"type":"Feature","geometry":{"type":"Point","coordinates":[139.61275,35.50813]}},{"properties":{"Full":44,"設立年月":0,"Type":"横浜保育室","Name":"保育室ウッズ","AgeS":"産休明け","AgeE":"3歳","Open":"7:00","Close":"19:30","H24":"","Memo":"","Extra":"","Temp":"","Holiday":"","Night":"","プレ幼稚園":"","園バス":"","給食":"","Add1":"横浜市港北区新横浜2-11プリンススケートセンター2F","Add2":"","TEL":"045-5476151","FAX":"","児童発達支援":"","重心（児童発達）":"","放課後デイ":"","重心（放課後デイ）":"","url":"http://www.hoikushitsu-woods.jp/index.html"},"type":"Feature","geometry":{"type":"Point","coordinates":[139.63081,35.53655]}},{"properties":{"Full":80,"設立年月":0,"Type":"公立認可保育所","Name":"（新設・仮称）保育室プリンプリンROOM","AgeS":"１歳","AgeE":"就学前","Open":"7:30","Close":"19:30","H24":"","Memo":"R4.4横浜保育室から認可に移行","Extra":"","Temp":"","Holiday":"","Night":"","プレ幼稚園":"","園バス":"","給食":"","Add1":"横浜市港北区綱島西3-9-12","Add2":"","TEL":"045-540-0122","FAX":"","児童発達支援":"","重心（児童発達）":"","放課後デイ":"","重心（放課後デイ）":"","url":"http://www5a.biglobe.ne.jp/~pu-ri-n-/"},"type":"Feature","geometry":{"type":"Point","coordinates":[139.62898,35.53814]}},{"properties":{"Full":20,"設立年月":0,"Type":"横浜保育室","Name":"星の子ルーム","AgeS":"3か月","AgeE":"2歳","Open":"7:15","Close":"20:15","H24":"","Memo":"","Extra":"","Temp":"","Holiday":"","Night":"","プレ幼稚園":"","園バス":"","給食":"","Add1":"横浜市港北区綱島西2-13-3藤掛綱島ビル2Ｆ","Add2":"","TEL":"045-563-6095","FAX":"","児童発達支援":"","重心（児童発達）":"","放課後デイ":"","重心（放課後デイ）":"","url":"http://www.kidslink.jp/hoshinoko"},"type":"Feature","geometry":{"type":"Point","coordinates":[139.64481,35.55399]}},{"properties":{"Full":36,"設立年月":0,"Type":"横浜保育室","Name":"横浜保育室きくな","AgeS":"産休明け","AgeE":"2歳","Open":"7:30","Close":"20:30","H24":"","Memo":"","Extra":"","Temp":"","Holiday":"","Night":"","プレ幼稚園":"","園バス":"","給食":"","Add1":"横浜市港北区綱島西3-9-12","Add2":"","TEL":"045-438-3162","FAX":"","児童発達支援":"","重心（児童発達）":"","放課後デイ":"","重心（放課後デイ）":"","url":"http://www.kikuna-tubaki.com/"},"type":"Feature","geometry":{"type":"Point","coordinates":[139.63015,35.51241]}},{"properties":{"Full":30,"設立年月":0,"Type":"横浜保育室","Name":"リトルスカラー","AgeS":"産休明け","AgeE":"2歳","Open":"7:30","Close":"19:30","H24":"","Memo":"","Extra":"","Temp":"","Holiday":"","Night":"","プレ幼稚園":"","園バス":"","給食":"","Add1":"横浜市港北区日吉本町1-5-41坂口屋日吉ビル2F","Add2":"","TEL":"045-642-3361","FAX":"","児童発達支援":"","重心（児童発達）":"","放課後デイ":"","重心（放課後デイ）":"","url":"http://www.little-scholar.com/"},"type":"Feature","geometry":{"type":"Point","coordinates":[139.63529,35.53767]}},{"properties":{"Full":30,"設立年月":0,"Type":"認可外保育施設","Name":"保育所ちびっこランド 日吉園","AgeS":"6か月","AgeE":"6歳","Open":"7:30","Close":"19:00","H24":"","Memo":"","Extra":"","Temp":"","Holiday":"","Night":"","プレ幼稚園":"","園バス":"","給食":"","Add1":"横浜市港北区大豆戸町257","Add2":"","TEL":"045-564-8300","FAX":"","児童発達支援":"","重心（児童発達）":"","放課後デイ":"","重心（放課後デイ）":"","url":"http://www.city.yokohama.lg.jp/kodomo/unei/hdata/ga0249.html"},"type":"Feature","geometry":{"type":"Point","coordinates":[139.64479,35.55665]}},{"properties":{"Full":15,"設立年月":0,"Type":"認可外保育施設","Name":"ベネッセチャイルドケアセンター日吉 トゥインクル一時保育室","AgeS":"生後57日目","AgeE":"就学前","Open":"8:00","Close":"18:00","H24":"","Memo":"","Extra":"","Temp":"","Holiday":"","Night":"","プレ幼稚園":"","園バス":"","給食":"","Add1":"横浜市港北区綱島西1-2-7-2F","Add2":"","TEL":"045-560-5088","FAX":"","児童発達支援":"","重心（児童発達）":"","放課後デイ":"","重心（放課後デイ）":"","url":"http://hoiku.benesse-style-care.co.jp/facilities/hiyoshi/twinkle/"},"type":"Feature","geometry":{"type":"Point","coordinates":[139.64733,35.55139]}},{"properties":{"Full":60,"設立年月":0,"Type":"認可外保育施設","Name":"平伸学園　小鳩保育園 ","AgeS":"2か月","AgeE":"6歳","Open":"7:30","Close":"19:00","H24":"","Memo":"","Extra":"","Temp":"","Holiday":"","Night":"","プレ幼稚園":"","園バス":"","給食":"","Add1":"横浜市港北区日吉2-12-7オｰシャンハイツ1F","Add2":"","TEL":"045-544-8619","FAX":"","児童発達支援":"","重心（児童発達）":"","放課後デイ":"","重心（放課後デイ）":"","url":"http://www.kobato-h.com/"},"type":"Feature","geometry":{"type":"Point","coordinates":[139.62468,35.54016]}},{"properties":{"Full":25,"設立年月":0,"Type":"認可外保育施設","Name":"どりいむ保育園","AgeS":"2か月","AgeE":"5歳","Open":"7:00","Close":"21:00","H24":"","Memo":"","Extra":"","Temp":"","Holiday":"","Night":"","プレ幼稚園":"","園バス":"","給食":"","Add1":"横浜市港北区日吉4-1-1慶應義塾日吉キャンパス協生館1F","Add2":"","TEL":"045-542-3638","FAX":"","児童発達支援":"","重心（児童発達）":"","放課後デイ":"","重心（放課後デイ）":"","url":"http://www.doriim.com/childcare/index.html"},"type":"Feature","geometry":{"type":"Point","coordinates":[139.63129,35.51952]}},{"properties":{"Full":20,"設立年月":0,"Type":"認可外保育施設","Name":"ひなた保育園 ","AgeS":"6か月","AgeE":"5歳","Open":"7:00","Close":"19:00","H24":"","Memo":"","Extra":"","Temp":"","Holiday":"","Night":"","プレ幼稚園":"","園バス":"","給食":"","Add1":"横浜市港北区新吉田東5-16-18 ","Add2":"","TEL":"045-642-3763","FAX":"","児童発達支援":"","重心（児童発達）":"","放課後デイ":"","重心（放課後デイ）":"","url":"http://hinata-hoikuen.net/"},"type":"Feature","geometry":{"type":"Point","coordinates":[139.63422,35.5246]}},{"properties":{"Full":0,"設立年月":0,"Type":"認可外保育施設","Name":"新横浜母と子の病院付属 フォーリーブス保育室","AgeS":"1ヶ月健診l終了後","AgeE":"就学前","Open":"8:00","Close":"19:00","H24":"","Memo":"","Extra":"","Temp":"","Holiday":"","Night":"","プレ幼稚園":"","園バス":"","給食":"","Add1":"横浜市港北区大倉山1-26-17 ","Add2":"","TEL":"045-534-6996","FAX":"","児童発達支援":"","重心（児童発達）":"","放課後デイ":"","重心（放課後デイ）":"","url":"https://www.hahatoko.jp/flc_hoiku/pc/"},"type":"Feature","geometry":{"type":"Point","coordinates":[139.60676,35.50354]}},{"properties":{"Full":20,"設立年月":0,"Type":"認可外保育施設","Name":"なかよしきっず","AgeS":"1歳","AgeE":"6歳","Open":"7:00","Close":"20:00","H24":"","Memo":"","Extra":"","Temp":"","Holiday":"","Night":"","プレ幼稚園":"","園バス":"","給食":"","Add1":"横浜市港北区師岡町1146-4","Add2":"","TEL":"045-472-1503","FAX":"","児童発達支援":"","重心（児童発達）":"","放課後デイ":"","重心（放課後デイ）":"","url":"http://www9.plala.or.jp/IMS/index.html"},"type":"Feature","geometry":{"type":"Point","coordinates":[139.60304,35.50322]}},{"properties":{"Full":50,"設立年月":0,"Type":"認可外保育施設","Name":"Shining・Stars","AgeS":"2歳","AgeE":"6歳","Open":"8:00","Close":"18:00","H24":"","Memo":"","Extra":"","Temp":"","Holiday":"","Night":"","プレ幼稚園":"","園バス":"","給食":"","Add1":"横浜市港北区鳥山町　1278 ","Add2":"","TEL":"045-478-3395","FAX":"","児童発達支援":"","重心（児童発達）":"","放課後デイ":"","重心（放課後デイ）":"","url":"http://www.shiningstars-preschool.com/"},"type":"Feature","geometry":{"type":"Point","coordinates":[139.58544,35.51021]}},{"properties":{"Full":19,"設立年月":0,"Type":"小規模・事業所内保育事業","Name":"（新設・仮称）保育室テックテックROOM","AgeS":"１歳","AgeE":"２歳","Open":"7:30","Close":"19:30","H24":"","Memo":"R4.4 認可外保育施設から小規模保育に移行","Extra":"","Temp":"","Holiday":"","Night":"","プレ幼稚園":"","園バス":"","給食":"","Add1":"横浜市港北区綱島台14-13 大明グレイス綱島1階","Add2":"","TEL":"045-540-0122","FAX":"","児童発達支援":"","重心（児童発達）":"","放課後デイ":"","重心（放課後デイ）":"","url":"http://www5a.biglobe.ne.jp/~pu-ri-n-/index.html"},"type":"Feature","geometry":{"type":"Point","coordinates":[139.62851,35.54007]}},{"properties":{"Full":20,"設立年月":0,"Type":"認可外保育施設","Name":"はっぴーはーと保育園","AgeS":"6ヶ月","AgeE":"2歳","Open":"7:30","Close":"19:00","H24":"","Memo":"","Extra":"","Temp":"","Holiday":"","Night":"","プレ幼稚園":"","園バス":"","給食":"","Add1":"横浜市港北区小机町　58-1 カーネルライフⅡ　1F","Add2":"","TEL":"045-834-7499","FAX":"","児童発達支援":"","重心（児童発達）":"","放課後デイ":"","重心（放課後デイ）":"","url":"http://www.happyhearthoikuen.jp/"},"type":"Feature","geometry":{"type":"Point","coordinates":[139.6384,35.54422]}},{"properties":{"Full":0,"設立年月":0,"Type":"認可外保育施設","Name":"めぐみベビーサークル","AgeS":"０歳","AgeE":"3歳","Open":"","Close":"","H24":"","Memo":"","Extra":"","Temp":"","Holiday":"","Night":"","プレ幼稚園":"","園バス":"","給食":"","Add1":"横浜市港北区綱島西　3-9-14 ","Add2":"","TEL":"045-717-6088","FAX":"","児童発達支援":"","重心（児童発達）":"","放課後デイ":"","重心（放課後デイ）":"","url":"http://megumi-baby.jp/"},"type":"Feature","geometry":{"type":"Point","coordinates":[139.6323,35.49478]}},{"properties":{"Full":60,"設立年月":0,"Type":"認可外保育施設","Name":"インターナショナル・ランゲージハウス 幼稚部","AgeS":"満3歳","AgeE":"就学前","Open":"9:00","Close":"18:00","H24":"","Memo":"","Extra":"","Temp":"","Holiday":"","Night":"","プレ幼稚園":"","園バス":"","給食":"","Add1":"横浜市港北区綱島西　6-7-10 ","Add2":"","TEL":"045-431-5346","FAX":"","児童発達支援":"","重心（児童発達）":"","放課後デイ":"","重心（放課後デイ）":"","url":"http://yilh-kinder.org/"},"type":"Feature","geometry":{"type":"Point","coordinates":[139.62371,35.50111]}},{"properties":{"Full":0,"設立年月":0,"Type":"認可外保育施設","Name":"インターナショナル・ベビー・ハウス大倉山","AgeS":"1歳","AgeE":"3歳","Open":"","Close":"","H24":"","Memo":"","Extra":"","Temp":"","Holiday":"","Night":"","プレ幼稚園":"","園バス":"","給食":"","Add1":"横浜市港北区仲手原　2-2-10 ジョイフル妙蓮寺　101","Add2":"","TEL":"045-947-2202","FAX":"","児童発達支援":"","重心（児童発達）":"","放課後デイ":"","重心（放課後デイ）":"","url":"http://yilh-kinder.org/"},"type":"Feature","geometry":{"type":"Point","coordinates":[139.63108,35.5206]}},{"properties":{"Full":36,"設立年月":0,"Type":"認可外保育施設","Name":"KidsLand MIRAio 新横浜","AgeS":"3歳","AgeE":"就学前","Open":"7:30","Close":"22:00","H24":"","Memo":"","Extra":"","Temp":"","Holiday":"","Night":"","プレ幼稚園":"","園バス":"","給食":"","Add1":"横浜市港北区篠原東　3-20-19","Add2":"","TEL":"045-473-8686","FAX":"","児童発達支援":"","重心（児童発達）":"","放課後デイ":"","重心（放課後デイ）":"","url":"http://www.miraio.net/kidsland/"},"type":"Feature","geometry":{"type":"Point","coordinates":[139.62128,35.51319]}},{"properties":{"Full":0,"設立年月":0,"Type":"認可外保育施設","Name":"港北子育て支援ワーカーズ・コレクティブ　ぽけっと","AgeS":"3ヶ月","AgeE":"4歳","Open":"","Close":"","H24":"","Memo":"","Extra":"","Temp":"","Holiday":"","Night":"","プレ幼稚園":"","園バス":"","給食":"","Add1":"横浜市港北区大倉山1-16-7-101","Add2":"","TEL":"045-642-5644","FAX":"","児童発達支援":"","重心（児童発達）":"","放課後デイ":"","重心（放課後デイ）":"","url":""},"type":"Feature","geometry":{"type":"Point","coordinates":[139.61441,35.52394]}},{"properties":{"Full":15,"設立年月":0,"Type":"小規模・事業所内保育事業","Name":"くじら保育園　","AgeS":"産休明け","AgeE":"就学前","Open":"7:30","Close":"18:30","H24":"","Memo":"","Extra":"","Temp":"","Holiday":"","Night":"","プレ幼稚園":"","園バス":"","給食":"","Add1":"横浜市港北区新横浜3-12-4エクステ新横浜1F","Add2":"","TEL":"045-562-6718","FAX":"","児童発達支援":"","重心（児童発達）":"","放課後デイ":"","重心（放課後デイ）":"","url":"http://www.kujiranoko.com/"},"type":"Feature","geometry":{"type":"Point","coordinates":[139.62703,35.55786]}},{"properties":{"Full":0,"設立年月":0,"Type":"小規模・事業所内保育事業","Name":"ワーカーズコレクティブ ココット","AgeS":"産休明け","AgeE":"就学前","Open":"9:00","Close":"17:00","H24":"","Memo":"","Extra":"","Temp":"","Holiday":"","Night":"","プレ幼稚園":"","園バス":"","給食":"","Add1":"横浜市港北区新羽町868","Add2":"","TEL":"045-565-0322","FAX":"","児童発達支援":"","重心（児童発達）":"","放課後デイ":"","重心（放課後デイ）":"","url":"http://cocotte0322.sakura.ne.jp/"},"type":"Feature","geometry":{"type":"Point","coordinates":[139.65617,35.54884]}},{"properties":{"Full":15,"設立年月":0,"Type":"小規模・事業所内保育事業","Name":"託児室あいあい","AgeS":"3ヶ月","AgeE":"6歳","Open":"9:00","Close":"18:00","H24":"","Memo":"","Extra":"","Temp":"","Holiday":"","Night":"","プレ幼稚園":"","園バス":"","給食":"","Add1":"横浜市港北区下田町5-29-23-1F","Add2":"","TEL":"045-402-3612","FAX":"","児童発達支援":"","重心（児童発達）":"","放課後デイ":"","重心（放課後デイ）":"","url":"http://aiai.kenkenpa.net/"},"type":"Feature","geometry":{"type":"Point","coordinates":[139.62102,35.49303]}},{"properties":{"Full":60,"設立年月":0,"Type":"私立認可保育所","Name":"アスクみのわ保育園","AgeS":"生後57日目","AgeE":"就学前","Open":"7:00","Close":"21:00","H24":"","Memo":"","Extra":"","Temp":"","Holiday":"","Night":"","プレ幼稚園":"","園バス":"","給食":"","Add1":"横浜市港北区日吉5-24-33Dayひよし2F","Add2":"","TEL":"03-6455-8033","FAX":"","児童発達支援":"","重心（児童発達）":"","放課後デイ":"","重心（放課後デイ）":"","url":"http://www.nihonhoiku.co.jp/blog/okurayama/shokai/"},"type":"Feature","geometry":{"type":"Point","coordinates":[139.64248,35.54405]}},{"properties":{"Full":60,"設立年月":0,"Type":"私立認可保育所","Name":"みらいく高田園","AgeS":"生後57日目","AgeE":"就学前","Open":"7:00","Close":"20:00","H24":"","Memo":"","Extra":"","Temp":"","Holiday":"","Night":"","プレ幼稚園":"","園バス":"","給食":"","Add1":"横浜市港北区篠原西町18-17T.Hビル1F","Add2":"","TEL":"044-820-6262","FAX":"","児童発達支援":"","重心（児童発達）":"","放課後デイ":"","重心（放課後デイ）":"","url":""},"type":"Feature","geometry":{"type":"Point","coordinates":[139.6132,35.55317]}},{"properties":{"Full":60,"設立年月":0,"Type":"私立認可保育所","Name":"綱島こども園","AgeS":"生後57日目","AgeE":"就学前","Open":"7:00","Close":"20:00","H24":"","Memo":"","Extra":"","Temp":"","Holiday":"","Night":"","プレ幼稚園":"","園バス":"","給食":"","Add1":"","Add2":"","TEL":"042-571-4536","FAX":"","児童発達支援":"","重心（児童発達）":"","放課後デイ":"","重心（放課後デイ）":"","url":""},"type":"Feature","geometry":{"type":"Point","coordinates":[139.63766,35.54424]}},{"properties":{"Full":80,"設立年月":0,"Type":"私立認可保育所","Name":"パレット保育園・大倉山","AgeS":"生後6か月","AgeE":"就学前","Open":"7:00","Close":"20:00","H24":"","Memo":"","Extra":"","Temp":"","Holiday":"","Night":"","プレ幼稚園":"","園バス":"","給食":"","Add1":"","Add2":"","TEL":"0120-355-149","FAX":"","児童発達支援":"","重心（児童発達）":"","放課後デイ":"","重心（放課後デイ）":"","url":""},"type":"Feature","geometry":{"type":"Point","coordinates":[139.63324,35.52674]}},{"properties":{"Full":60,"設立年月":0,"Type":"私立認可保育所","Name":"明日葉保育園　大倉山園","AgeS":"生後57日目","AgeE":"就学前","Open":"7:00","Close":"20:00","H24":"","Memo":"","Extra":"","Temp":"","Holiday":"","Night":"","プレ幼稚園":"","園バス":"","給食":"","Add1":"","Add2":"","TEL":"03-5421-7327","FAX":"","児童発達支援":"","重心（児童発達）":"","放課後デイ":"","重心（放課後デイ）":"","url":""},"type":"Feature","geometry":{"type":"Point","coordinates":[139.63086,35.52046]}},{"properties":{"Full":55,"設立年月":0,"Type":"私立認可保育所","Name":"キッズパートナー小机","AgeS":"生後57日目","AgeE":"就学前","Open":"7:00","Close":"19:00","H24":"","Memo":"","Extra":"","Temp":"","Holiday":"","Night":"","プレ幼稚園":"","園バス":"","給食":"","Add1":"","Add2":"","TEL":"045-328-3701","FAX":"","児童発達支援":"","重心（児童発達）":"","放課後デイ":"","重心（放課後デイ）":"","url":""},"type":"Feature","geometry":{"type":"Point","coordinates":[139.60073,35.50973]}},{"properties":{"Full":17,"設立年月":0,"Type":"小規模・事業所内保育事業","Name":"グローバルキッズ綱島SST園","AgeS":"生後57日目","AgeE":"2歳","Open":"7:30","Close":"20:30","H24":"","Memo":"","Extra":"","Temp":"","Holiday":"","Night":"","プレ幼稚園":"","園バス":"","給食":"","Add1":"","Add2":"","TEL":"03-3239-7080","FAX":"","児童発達支援":"","重心（児童発達）":"","放課後デイ":"","重心（放課後デイ）":"","url":""},"type":"Feature","geometry":{"type":"Point","coordinates":[139.64149,35.54254]}},{"properties":{"Full":0,"設立年月":0,"Type":"障害児通所支援事業","Name":"あそびのひろば こかげ","AgeS":"","AgeE":"","Open":"","Close":"","H24":"","Memo":"","Extra":"","Temp":"","Holiday":"","Night":"","プレ幼稚園":"","園バス":"","給食":"","Add1":"","Add2":"","TEL":"045-503-1256","FAX":"","児童発達支援":"Y","重心（児童発達）":"","放課後デイ":"Y","重心（放課後デイ）":"","url":""},"type":"Feature","geometry":{"type":"Point","coordinates":[139.67626,35.50804]}},{"properties":{"Full":0,"設立年月":0,"Type":"障害児通所支援事業","Name":"発達療育レンテ","AgeS":"","AgeE":"","Open":"","Close":"","H24":"","Memo":"","Extra":"","Temp":"","Holiday":"","Night":"","プレ幼稚園":"","園バス":"","給食":"","Add1":"","Add2":"","TEL":"045-642-3056","FAX":"","児童発達支援":"Y","重心（児童発達）":"","放課後デイ":"Y","重心（放課後デイ）":"","url":""},"type":"Feature","geometry":{"type":"Point","coordinates":[139.67795,35.50862]}},{"properties":{"Full":0,"設立年月":0,"Type":"障害児通所支援事業","Name":"放課後等デイサービスデイキッズアジャスト鶴見中央教室","AgeS":"","AgeE":"","Open":"","Close":"","H24":"","Memo":"","Extra":"","Temp":"","Holiday":"","Night":"","プレ幼稚園":"","園バス":"","給食":"","Add1":"","Add2":"","TEL":"045-642-8666","FAX":"","児童発達支援":"N","重心（児童発達）":"","放課後デイ":"Y","重心（放課後デイ）":"","url":""},"type":"Feature","geometry":{"type":"Point","coordinates":[139.67799,35.50597]}},{"properties":{"Full":0,"設立年月":0,"Type":"障害児通所支援事業","Name":"放課後デイサービスもみじのてＫＩＤＳ駒岡","AgeS":"","AgeE":"","Open":"","Close":"","H24":"","Memo":"","Extra":"","Temp":"","Holiday":"","Night":"","プレ幼稚園":"","園バス":"","給食":"","Add1":"","Add2":"","TEL":"045-834-7310","FAX":"","児童発達支援":"N","重心（児童発達）":"","放課後デイ":"Y","重心（放課後デイ）":"","url":""},"type":"Feature","geometry":{"type":"Point","coordinates":[139.65216,35.5278]}},{"properties":{"Full":0,"設立年月":0,"Type":"障害児通所支援事業","Name":"たちばな子どもの発達教室たっち","AgeS":"","AgeE":"","Open":"","Close":"","H24":"","Memo":"","Extra":"","Temp":"","Holiday":"","Night":"","プレ幼稚園":"","園バス":"","給食":"","Add1":"","Add2":"","TEL":"045-570-5880","FAX":"","児童発達支援":"Y","重心（児童発達）":"","放課後デイ":"N","重心（放課後デイ）":"","url":""},"type":"Feature","geometry":{"type":"Point","coordinates":[139.65172,35.51531]}},{"properties":{"Full":0,"設立年月":0,"Type":"障害児通所支援事業","Name":"キッズタウンかじやま","AgeS":"","AgeE":"","Open":"","Close":"","H24":"","Memo":"","Extra":"","Temp":"","Holiday":"","Night":"","プレ幼稚園":"","園バス":"","給食":"","Add1":"","Add2":"","TEL":"045-947-4700","FAX":"","児童発達支援":"N","重心（児童発達）":"","放課後デイ":"Y","重心（放課後デイ）":"","url":""},"type":"Feature","geometry":{"type":"Point","coordinates":[139.65979,35.52958]}},{"properties":{"Full":0,"設立年月":0,"Type":"障害児通所支援事業","Name":"キッズライン","AgeS":"","AgeE":"","Open":"","Close":"","H24":"","Memo":"","Extra":"","Temp":"","Holiday":"","Night":"","プレ幼稚園":"","園バス":"","給食":"","Add1":"","Add2":"","TEL":"045-572-2627","FAX":"","児童発達支援":"Y","重心（児童発達）":"","放課後デイ":"Y","重心（放課後デイ）":"","url":""},"type":"Feature","geometry":{"type":"Point","coordinates":[139.66482,35.49488]}},{"properties":{"Full":0,"設立年月":0,"Type":"障害児通所支援事業","Name":"放課後デイサービスもみじのて KIDS 鶴見","AgeS":"","AgeE":"","Open":"","Close":"","H24":"","Memo":"","Extra":"","Temp":"","Holiday":"","Night":"","プレ幼稚園":"","園バス":"","給食":"","Add1":"","Add2":"","TEL":"045-947-2002","FAX":"","児童発達支援":"N","重心（児童発達）":"","放課後デイ":"Y","重心（放課後デイ）":"","url":""},"type":"Feature","geometry":{"type":"Point","coordinates":[139.66004,35.50412]}},{"properties":{"Full":0,"設立年月":0,"Type":"障害児通所支援事業","Name":"キッズわんデイサービスつるみ","AgeS":"","AgeE":"","Open":"","Close":"","H24":"","Memo":"","Extra":"","Temp":"","Holiday":"","Night":"","プレ幼稚園":"","園バス":"","給食":"","Add1":"","Add2":"","TEL":"045-717-6921","FAX":"","児童発達支援":"N","重心（児童発達）":"","放課後デイ":"Y","重心（放課後デイ）":"","url":""},"type":"Feature","geometry":{"type":"Point","coordinates":[139.67082,35.53199]}},{"properties":{"Full":0,"設立年月":0,"Type":"障害児通所支援事業","Name":"キッズわんデイサービスつるみ中央","AgeS":"","AgeE":"","Open":"","Close":"","H24":"","Memo":"","Extra":"","Temp":"","Holiday":"","Night":"","プレ幼稚園":"","園バス":"","給食":"","Add1":"","Add2":"","TEL":"045-947-2683","FAX":"","児童発達支援":"N","重心（児童発達）":"","放課後デイ":"Y","重心（放課後デイ）":"","url":""},"type":"Feature","geometry":{"type":"Point","coordinates":[139.67844,35.50495]}},{"properties":{"Full":0,"設立年月":0,"Type":"障害児通所支援事業","Name":"スマートキッズプラス鶴見","AgeS":"","AgeE":"","Open":"","Close":"","H24":"","Memo":"","Extra":"","Temp":"","Holiday":"","Night":"","プレ幼稚園":"","園バス":"","給食":"","Add1":"","Add2":"","TEL":"045-834-9103","FAX":"","児童発達支援":"N","重心（児童発達）":"","放課後デイ":"Y","重心（放課後デイ）":"","url":""},"type":"Feature","geometry":{"type":"Point","coordinates":[139.65286,35.50085]}},{"properties":{"Full":0,"設立年月":0,"Type":"障害児通所支援事業","Name":"ライズ児童デイサービス鶴見矢向","AgeS":"","AgeE":"","Open":"","Close":"","H24":"","Memo":"","Extra":"","Temp":"","Holiday":"","Night":"","プレ幼稚園":"","園バス":"","給食":"","Add1":"","Add2":"","TEL":"045-580-1070","FAX":"","児童発達支援":"N","重心（児童発達）":"","放課後デイ":"Y","重心（放課後デイ）":"","url":""},"type":"Feature","geometry":{"type":"Point","coordinates":[139.67855,35.5391]}},{"properties":{"Full":0,"設立年月":0,"Type":"障害児通所支援事業","Name":"ライズ児童デイサービス北寺尾","AgeS":"","AgeE":"","Open":"","Close":"","H24":"","Memo":"","Extra":"","Temp":"","Holiday":"","Night":"","プレ幼稚園":"","園バス":"","給食":"","Add1":"","Add2":"","TEL":"045-580-1601","FAX":"","児童発達支援":"N","重心（児童発達）":"","放課後デイ":"Y","重心（放課後デイ）":"","url":""},"type":"Feature","geometry":{"type":"Point","coordinates":[139.6493,35.51467]}},{"properties":{"Full":0,"設立年月":0,"Type":"障害児通所支援事業","Name":"ウィッシュ・フレンズ栄町通","AgeS":"","AgeE":"","Open":"","Close":"","H24":"","Memo":"","Extra":"","Temp":"","Holiday":"","Night":"","プレ幼稚園":"","園バス":"","給食":"","Add1":"","Add2":"","TEL":"045-947-3470","FAX":"","児童発達支援":"N","重心（児童発達）":"","放課後デイ":"Y","重心（放課後デイ）":"","url":""},"type":"Feature","geometry":{"type":"Point","coordinates":[139.69044,35.5136]}},{"properties":{"Full":0,"設立年月":0,"Type":"障害児通所支援事業","Name":"ファミリーサポート さくら放課後デイサービス","AgeS":"","AgeE":"","Open":"","Close":"","H24":"","Memo":"","Extra":"","Temp":"","Holiday":"","Night":"","プレ幼稚園":"","園バス":"","給食":"","Add1":"","Add2":"","TEL":"0120-037-390","FAX":"","児童発達支援":"N","重心（児童発達）":"","放課後デイ":"Y","重心（放課後デイ）":"","url":""},"type":"Feature","geometry":{"type":"Point","coordinates":[139.66734,35.53011]}},{"properties":{"Full":0,"設立年月":0,"Type":"障害児通所支援事業","Name":"放課後デイサービスもみじのて KIDS 末吉","AgeS":"","AgeE":"","Open":"","Close":"","H24":"","Memo":"","Extra":"","Temp":"","Holiday":"","Night":"","プレ幼稚園":"","園バス":"","給食":"","Add1":"","Add2":"","TEL":"045-642-8160","FAX":"","児童発達支援":"N","重心（児童発達）":"","放課後デイ":"Y","重心（放課後デイ）":"","url":""},"type":"Feature","geometry":{"type":"Point","coordinates":[139.66063,35.53455]}},{"properties":{"Full":0,"設立年月":0,"Type":"障害児通所支援事業","Name":"スマートキッズジュニア鶴見","AgeS":"","AgeE":"","Open":"","Close":"","H24":"","Memo":"","Extra":"","Temp":"","Holiday":"","Night":"","プレ幼稚園":"","園バス":"","給食":"","Add1":"","Add2":"","TEL":"045-717-8755","FAX":"","児童発達支援":"N","重心（児童発達）":"","放課後デイ":"Y","重心（放課後デイ）":"","url":""},"type":"Feature","geometry":{"type":"Point","coordinates":[139.654,35.51543]}},{"properties":{"Full":0,"設立年月":0,"Type":"障害児通所支援事業","Name":"LITALICO ジュニア横浜東口教室","AgeS":"","AgeE":"","Open":"","Close":"","H24":"","Memo":"","Extra":"","Temp":"","Holiday":"","Night":"","プレ幼稚園":"","園バス":"","給食":"","Add1":"","Add2":"","TEL":"045-274-8338","FAX":"","児童発達支援":"Y","重心（児童発達）":"","放課後デイ":"Y","重心（放課後デイ）":"","url":""},"type":"Feature","geometry":{"type":"Point","coordinates":[139.62602,35.46875]}},{"properties":{"Full":0,"設立年月":0,"Type":"障害児通所支援事業","Name":"リトルクライム","AgeS":"","AgeE":"","Open":"","Close":"","H24":"","Memo":"","Extra":"","Temp":"","Holiday":"","Night":"","プレ幼稚園":"","園バス":"","給食":"","Add1":"","Add2":"","TEL":"045-548-4710","FAX":"","児童発達支援":"N","重心（児童発達）":"","放課後デイ":"Y","重心（放課後デイ）":"","url":""},"type":"Feature","geometry":{"type":"Point","coordinates":[139.60837,35.47132]}},{"properties":{"Full":0,"設立年月":0,"Type":"障害児通所支援事業","Name":"カナガク自立支援学習センター放課後デイ横浜西口","AgeS":"","AgeE":"","Open":"","Close":"","H24":"","Memo":"","Extra":"","Temp":"","Holiday":"","Night":"","プレ幼稚園":"","園バス":"","給食":"","Add1":"","Add2":"","TEL":"045-313-1359","FAX":"","児童発達支援":"N","重心（児童発達）":"","放課後デイ":"Y","重心（放課後デイ）":"","url":""},"type":"Feature","geometry":{"type":"Point","coordinates":[139.61766,35.46916]}},{"properties":{"Full":0,"設立年月":0,"Type":"障害児通所支援事業","Name":"ＴＥＥＮＳ横浜","AgeS":"","AgeE":"","Open":"","Close":"","H24":"","Memo":"","Extra":"","Temp":"","Holiday":"","Night":"","プレ幼稚園":"","園バス":"","給食":"","Add1":"","Add2":"","TEL":"050-2018-2041","FAX":"","児童発達支援":"Y","重心（児童発達）":"","放課後デイ":"Y","重心（放課後デイ）":"","url":""},"type":"Feature","geometry":{"type":"Point","coordinates":[139.63074,35.47846]}},{"properties":{"Full":0,"設立年月":0,"Type":"障害児通所支援事業","Name":"放課後等デイサービスもえぎのクローバー大口","AgeS":"","AgeE":"","Open":"","Close":"","H24":"","Memo":"","Extra":"","Temp":"","Holiday":"","Night":"","プレ幼稚園":"","園バス":"","給食":"","Add1":"","Add2":"","TEL":"045-434-1211","FAX":"","児童発達支援":"N","重心（児童発達）":"","放課後デイ":"Y","重心（放課後デイ）":"","url":""},"type":"Feature","geometry":{"type":"Point","coordinates":[139.64326,35.49289]}},{"properties":{"Full":0,"設立年月":0,"Type":"障害児通所支援事業","Name":"放課後エニィタイム","AgeS":"","AgeE":"","Open":"","Close":"","H24":"","Memo":"","Extra":"","Temp":"","Holiday":"","Night":"","プレ幼稚園":"","園バス":"","給食":"","Add1":"","Add2":"","TEL":"045-534-6910","FAX":"","児童発達支援":"N","重心（児童発達）":"","放課後デイ":"Y","重心（放課後デイ）":"","url":""},"type":"Feature","geometry":{"type":"Point","coordinates":[139.62336,35.48867]}},{"properties":{"Full":0,"設立年月":0,"Type":"障害児通所支援事業","Name":"こぴーぬ反町ルーム","AgeS":"","AgeE":"","Open":"","Close":"","H24":"","Memo":"","Extra":"","Temp":"","Holiday":"","Night":"","プレ幼稚園":"","園バス":"","給食":"","Add1":"","Add2":"","TEL":"045-595-9912","FAX":"","児童発達支援":"N","重心（児童発達）":"","放課後デイ":"Y","重心（放課後デイ）":"","url":""},"type":"Feature","geometry":{"type":"Point","coordinates":[139.623,35.4758]}},{"properties":{"Full":0,"設立年月":0,"Type":"障害児通所支援事業","Name":"放課後等デイサービスどんぐりん","AgeS":"","AgeE":"","Open":"","Close":"","H24":"","Memo":"","Extra":"","Temp":"","Holiday":"","Night":"","プレ幼稚園":"","園バス":"","給食":"","Add1":"","Add2":"","TEL":"045-442-3988","FAX":"","児童発達支援":"N","重心（児童発達）":"","放課後デイ":"Y","重心（放課後デイ）":"","url":""},"type":"Feature","geometry":{"type":"Point","coordinates":[139.58301,35.48315]}},{"properties":{"Full":0,"設立年月":0,"Type":"障害児通所支援事業","Name":"放課後等デイサービスカナプラ西寺尾","AgeS":"","AgeE":"","Open":"","Close":"","H24":"","Memo":"","Extra":"","Temp":"","Holiday":"","Night":"","プレ幼稚園":"","園バス":"","給食":"","Add1":"","Add2":"","TEL":"045-718-6202","FAX":"","児童発達支援":"Y","重心（児童発達）":"","放課後デイ":"Y","重心（放課後デイ）":"","url":""},"type":"Feature","geometry":{"type":"Point","coordinates":[139.6437,35.50203]}},{"properties":{"Full":0,"設立年月":0,"Type":"障害児通所支援事業","Name":"ＳＴＥＰ白楽","AgeS":"","AgeE":"","Open":"","Close":"","H24":"","Memo":"","Extra":"","Temp":"","Holiday":"","Night":"","プレ幼稚園":"","園バス":"","給食":"","Add1":"","Add2":"","TEL":"045-488-5666","FAX":"","児童発達支援":"N","重心（児童発達）":"","放課後デイ":"Y","重心（放課後デイ）":"","url":""},"type":"Feature","geometry":{"type":"Point","coordinates":[139.62379,35.48637]}},{"properties":{"Full":0,"設立年月":0,"Type":"障害児通所支援事業","Name":"キッズアティック","AgeS":"","AgeE":"","Open":"","Close":"","H24":"","Memo":"","Extra":"","Temp":"","Holiday":"","Night":"","プレ幼稚園":"","園バス":"","給食":"","Add1":"","Add2":"","TEL":"045-413-1010","FAX":"","児童発達支援":"Y","重心（児童発達）":"","放課後デイ":"N","重心（放課後デイ）":"","url":""},"type":"Feature","geometry":{"type":"Point","coordinates":[139.61266,35.48713]}},{"properties":{"Full":0,"設立年月":0,"Type":"障害児通所支援事業","Name":"コラゾン横浜コットンハーバー","AgeS":"","AgeE":"","Open":"","Close":"","H24":"","Memo":"","Extra":"","Temp":"","Holiday":"","Night":"","プレ幼稚園":"","園バス":"","給食":"","Add1":"","Add2":"","TEL":"045-444-2455","FAX":"","児童発達支援":"Y","重心（児童発達）":"","放課後デイ":"Y","重心（放課後デイ）":"","url":""},"type":"Feature","geometry":{"type":"Point","coordinates":[139.63752,35.47163]}},{"properties":{"Full":0,"設立年月":0,"Type":"障害児通所支援事業","Name":"ひまわりキッズ","AgeS":"","AgeE":"","Open":"","Close":"","H24":"","Memo":"","Extra":"","Temp":"","Holiday":"","Night":"","プレ幼稚園":"","園バス":"","給食":"","Add1":"","Add2":"","TEL":"045-548-6188","FAX":"","児童発達支援":"N","重心（児童発達）":"","放課後デイ":"Y","重心（放課後デイ）":"","url":""},"type":"Feature","geometry":{"type":"Point","coordinates":[139.62516,35.47292]}},{"properties":{"Full":0,"設立年月":0,"Type":"障害児通所支援事業","Name":"放課後等デイサービスふくろうの杜","AgeS":"","AgeE":"","Open":"","Close":"","H24":"","Memo":"","Extra":"","Temp":"","Holiday":"","Night":"","プレ幼稚園":"","園バス":"","給食":"","Add1":"","Add2":"","TEL":"045-567-0901","FAX":"","児童発達支援":"N","重心（児童発達）":"","放課後デイ":"Y","重心（放課後デイ）":"","url":""},"type":"Feature","geometry":{"type":"Point","coordinates":[139.6185,35.49466]}},{"properties":{"Full":0,"設立年月":0,"Type":"障害児通所支援事業","Name":"こころ","AgeS":"","AgeE":"","Open":"","Close":"","H24":"","Memo":"","Extra":"","Temp":"","Holiday":"","Night":"","プレ幼稚園":"","園バス":"","給食":"","Add1":"","Add2":"","TEL":"045-565-9815","FAX":"","児童発達支援":"N","重心（児童発達）":"","放課後デイ":"Y","重心（放課後デイ）":"","url":""},"type":"Feature","geometry":{"type":"Point","coordinates":[139.58096,35.49692]}},{"properties":{"Full":0,"設立年月":0,"Type":"障害児通所支援事業","Name":"放課後等デイサービスにじいろハウス","AgeS":"","AgeE":"","Open":"","Close":"","H24":"","Memo":"","Extra":"","Temp":"","Holiday":"","Night":"","プレ幼稚園":"","園バス":"","給食":"","Add1":"","Add2":"","TEL":"045-594-9545","FAX":"","児童発達支援":"N","重心（児童発達）":"","放課後デイ":"Y","重心（放課後デイ）":"","url":""},"type":"Feature","geometry":{"type":"Point","coordinates":[139.62814,35.47898]}},{"properties":{"Full":0,"設立年月":0,"Type":"障害児通所支援事業","Name":"つむぎ子ども教室（特定非営利活動法人 ムーミンの会）","AgeS":"","AgeE":"","Open":"","Close":"","H24":"","Memo":"","Extra":"","Temp":"","Holiday":"","Night":"","プレ幼稚園":"","園バス":"","給食":"","Add1":"","Add2":"","TEL":"045-253-1203","FAX":"","児童発達支援":"Y","重心（児童発達）":"","放課後デイ":"Y","重心（放課後デイ）":"","url":""},"type":"Feature","geometry":{"type":"Point","coordinates":[139.60985,35.45252]}},{"properties":{"Full":0,"設立年月":0,"Type":"障害児通所支援事業","Name":"スマートキッズプラス横浜","AgeS":"","AgeE":"","Open":"","Close":"","H24":"","Memo":"","Extra":"","Temp":"","Holiday":"","Night":"","プレ幼稚園":"","園バス":"","給食":"","Add1":"横浜市西区久保町16-12 アイザワビル1階","Add2":"","TEL":"045-334-8443","FAX":"","児童発達支援":"Y","重心（児童発達）":"","放課後デイ":"Y","重心（放課後デイ）":"","url":""},"type":"Feature","geometry":{"type":"Point","coordinates":[139.60851,35.45053]}},{"properties":{"Full":0,"設立年月":0,"Type":"障害児通所支援事業","Name":"プレップ学習サポートセンター横浜","AgeS":"","AgeE":"","Open":"","Close":"","H24":"","Memo":"","Extra":"","Temp":"","Holiday":"","Night":"","プレ幼稚園":"","園バス":"","給食":"","Add1":"横浜市西区平沼1-38-2 2F","Add2":"","TEL":"045-534-6451","FAX":"","児童発達支援":"N","重心（児童発達）":"","放課後デイ":"Y","重心（放課後デイ）":"","url":""},"type":"Feature","geometry":{"type":"Point","coordinates":[139.62068,35.46129]}},{"properties":{"Full":0,"設立年月":0,"Type":"障害児通所支援事業","Name":"スマートキッズジュニア横浜","AgeS":"","AgeE":"","Open":"","Close":"","H24":"","Memo":"","Extra":"","Temp":"","Holiday":"","Night":"","プレ幼稚園":"","園バス":"","給食":"","Add1":"","Add2":"","TEL":"045-315-7944","FAX":"","児童発達支援":"N","重心（児童発達）":"","放課後デイ":"Y","重心（放課後デイ）":"","url":""},"type":"Feature","geometry":{"type":"Point","coordinates":[139.61017,35.45003]}},{"properties":{"Full":0,"設立年月":0,"Type":"障害児通所支援事業","Name":"スマートキッズジュニア横浜第二","AgeS":"","AgeE":"","Open":"","Close":"","H24":"","Memo":"","Extra":"","Temp":"","Holiday":"","Night":"","プレ幼稚園":"","園バス":"","給食":"","Add1":"","Add2":"","TEL":"045-315-6613","FAX":"","児童発達支援":"N","重心（児童発達）":"","放課後デイ":"Y","重心（放課後デイ）":"","url":""},"type":"Feature","geometry":{"type":"Point","coordinates":[139.61021,35.45057]}},{"properties":{"Full":0,"設立年月":0,"Type":"障害児通所支援事業","Name":"ふれあい広場","AgeS":"","AgeE":"","Open":"","Close":"","H24":"","Memo":"","Extra":"","Temp":"","Holiday":"","Night":"","プレ幼稚園":"","園バス":"","給食":"","Add1":"","Add2":"","TEL":"045-320-0732","FAX":"","児童発達支援":"N","重心（児童発達）":"","放課後デイ":"Y","重心（放課後デイ）":"一部重心","url":""},"type":"Feature","geometry":{"type":"Point","coordinates":[139.61191,35.45911]}},{"properties":{"Full":0,"設立年月":0,"Type":"障害児通所支援事業","Name":"LITALICO ジュニア横浜西口教室 総合発達コース","AgeS":"","AgeE":"","Open":"","Close":"","H24":"","Memo":"","Extra":"","Temp":"","Holiday":"","Night":"","プレ幼稚園":"","園バス":"","給食":"","Add1":"","Add2":"","TEL":"045-311-8988","FAX":"","児童発達支援":"Y","重心（児童発達）":"","放課後デイ":"N","重心（放課後デイ）":"","url":""},"type":"Feature","geometry":{"type":"Point","coordinates":[139.61659,35.46314]}},{"properties":{"Full":0,"設立年月":0,"Type":"障害児通所支援事業","Name":"発達支援つむぎ 横浜西口ルーム（社会福祉法人 どろんこ会）","AgeS":"","AgeE":"","Open":"","Close":"","H24":"","Memo":"","Extra":"","Temp":"","Holiday":"","Night":"","プレ幼稚園":"","園バス":"","給食":"","Add1":"","Add2":"","TEL":"045-595-9081","FAX":"","児童発達支援":"Y","重心（児童発達）":"","放課後デイ":"N","重心（放課後デイ）":"","url":""},"type":"Feature","geometry":{"type":"Point","coordinates":[139.61597,35.46348]}},{"properties":{"Full":0,"設立年月":0,"Type":"障害児通所支援事業","Name":"発達支援つむぎ 横浜東口ルーム（社会福祉法人 どろんこ会）","AgeS":"","AgeE":"","Open":"","Close":"","H24":"","Memo":"","Extra":"","Temp":"","Holiday":"","Night":"","プレ幼稚園":"","園バス":"","給食":"","Add1":"","Add2":"","TEL":"045-594-9322","FAX":"","児童発達支援":"Y","重心（児童発達）":"","放課後デイ":"N","重心（放課後デイ）":"","url":""},"type":"Feature","geometry":{"type":"Point","coordinates":[139.62068,35.46129]}},{"properties":{"Full":0,"設立年月":0,"Type":"障害児通所支援事業","Name":"こんぴす","AgeS":"","AgeE":"","Open":"","Close":"","H24":"","Memo":"","Extra":"","Temp":"","Holiday":"","Night":"","プレ幼稚園":"","園バス":"","給食":"","Add1":"","Add2":"","TEL":"045-628-0439","FAX":"","児童発達支援":"N","重心（児童発達）":"","放課後デイ":"Y","重心（放課後デイ）":"","url":""},"type":"Feature","geometry":{"type":"Point","coordinates":[139.66174,35.43055]}},{"properties":{"Full":0,"設立年月":0,"Type":"障害児通所支援事業","Name":"ライズ児童デイサービス本牧","AgeS":"","AgeE":"","Open":"","Close":"","H24":"","Memo":"","Extra":"","Temp":"","Holiday":"","Night":"","プレ幼稚園":"","園バス":"","給食":"","Add1":"","Add2":"","TEL":"045-263-6942","FAX":"","児童発達支援":"N","重心（児童発達）":"","放課後デイ":"Y","重心（放課後デイ）":"","url":""},"type":"Feature","geometry":{"type":"Point","coordinates":[139.65679,35.43168]}},{"properties":{"Full":0,"設立年月":0,"Type":"障害児通所支援事業","Name":"児童発達支援室 ｗｉｔｈ","AgeS":"","AgeE":"","Open":"","Close":"","H24":"","Memo":"","Extra":"","Temp":"","Holiday":"","Night":"","プレ幼稚園":"","園バス":"","給食":"","Add1":"","Add2":"","TEL":"045-315-6482","FAX":"","児童発達支援":"Y","重心（児童発達）":"","放課後デイ":"Y","重心（放課後デイ）":"","url":""},"type":"Feature","geometry":{"type":"Point","coordinates":[139.62411,35.43864]}},{"properties":{"Full":0,"設立年月":0,"Type":"障害児通所支援事業","Name":"放課後等デイサービススイミーフレンズ石川町","AgeS":"","AgeE":"","Open":"","Close":"","H24":"","Memo":"","Extra":"","Temp":"","Holiday":"","Night":"","プレ幼稚園":"","園バス":"","給食":"","Add1":"","Add2":"","TEL":"045-664-6181","FAX":"","児童発達支援":"N","重心（児童発達）":"","放課後デイ":"Y","重心（放課後デイ）":"","url":""},"type":"Feature","geometry":{"type":"Point","coordinates":[139.64142,35.43771]}},{"properties":{"Full":0,"設立年月":0,"Type":"障害児通所支援事業","Name":"移サぴょん ホッとスポット","AgeS":"","AgeE":"","Open":"","Close":"","H24":"","Memo":"","Extra":"","Temp":"","Holiday":"","Night":"","プレ幼稚園":"","園バス":"","給食":"","Add1":"","Add2":"","TEL":"045-212-2863","FAX":"","児童発達支援":"N","重心（児童発達）":"","放課後デイ":"Y","重心（放課後デイ）":"","url":""},"type":"Feature","geometry":{"type":"Point","coordinates":[139.63558,35.44514]}},{"properties":{"Full":0,"設立年月":0,"Type":"障害児通所支援事業","Name":"中区もえぎ","AgeS":"","AgeE":"","Open":"","Close":"","H24":"","Memo":"","Extra":"","Temp":"","Holiday":"","Night":"","プレ幼稚園":"","園バス":"","給食":"","Add1":"","Add2":"","TEL":"045-315-2147","FAX":"","児童発達支援":"Y","重心（児童発達）":"","放課後デイ":"Y","重心（放課後デイ）":"","url":""},"type":"Feature","geometry":{"type":"Point","coordinates":[139.6266,35.44512]}},{"properties":{"Full":0,"設立年月":0,"Type":"障害児通所支援事業","Name":"療育スタジオ・ピコ 関内教室","AgeS":"","AgeE":"","Open":"","Close":"","H24":"","Memo":"","Extra":"","Temp":"","Holiday":"","Night":"","プレ幼稚園":"","園バス":"","給食":"","Add1":"","Add2":"","TEL":"045-334-7156","FAX":"","児童発達支援":"N","重心（児童発達）":"","放課後デイ":"Y","重心（放課後デイ）":"","url":""},"type":"Feature","geometry":{"type":"Point","coordinates":[139.63499,35.43733]}},{"properties":{"Full":0,"設立年月":0,"Type":"障害児通所支援事業","Name":"LITALICO ジュニア関内教室","AgeS":"","AgeE":"","Open":"","Close":"","H24":"","Memo":"","Extra":"","Temp":"","Holiday":"","Night":"","プレ幼稚園":"","園バス":"","給食":"","Add1":"","Add2":"","TEL":"(児)045-227-5221(放)045-227-5222","FAX":"","児童発達支援":"Y","重心（児童発達）":"","放課後デイ":"Y","重心（放課後デイ）":"","url":""},"type":"Feature","geometry":{"type":"Point","coordinates":[139.63736,35.44526]}},{"properties":{"Full":0,"設立年月":0,"Type":"障害児通所支援事業","Name":"ハビー関内教室","AgeS":"","AgeE":"","Open":"","Close":"","H24":"","Memo":"","Extra":"","Temp":"","Holiday":"","Night":"","プレ幼稚園":"","園バス":"","給食":"","Add1":"","Add2":"","TEL":"045-341-3920","FAX":"","児童発達支援":"Y","重心（児童発達）":"","放課後デイ":"N","重心（放課後デイ）":"","url":""},"type":"Feature","geometry":{"type":"Point","coordinates":[139.63286,35.44293]}},{"properties":{"Full":0,"設立年月":0,"Type":"障害児通所支援事業","Name":"LITALICO ジュニア桜木町教室","AgeS":"","AgeE":"","Open":"","Close":"","H24":"","Memo":"","Extra":"","Temp":"","Holiday":"","Night":"","プレ幼稚園":"","園バス":"","給食":"","Add1":"","Add2":"","TEL":"045-250-3937","FAX":"","児童発達支援":"Y","重心（児童発達）":"","放課後デイ":"Y","重心（放課後デイ）":"","url":""},"type":"Feature","geometry":{"type":"Point","coordinates":[139.62833,35.44787]}},{"properties":{"Full":0,"設立年月":0,"Type":"障害児通所支援事業","Name":"キッズサポート・どんと","AgeS":"","AgeE":"","Open":"","Close":"","H24":"","Memo":"","Extra":"","Temp":"","Holiday":"","Night":"","プレ幼稚園":"","園バス":"","給食":"","Add1":"","Add2":"","TEL":"045-350-8113","FAX":"","児童発達支援":"N","重心（児童発達）":"","放課後デイ":"Y","重心（放課後デイ）":"","url":""},"type":"Feature","geometry":{"type":"Point","coordinates":[139.61776,35.43292]}},